school,long,lat,x,y
Te Kura o Te Kao,172.965948,-34.654712,1596879.7022457172,6165246.445356902
Taipa Area School,173.464302,-34.994709,1642371.2127858659,6127445.227411663
Kaitaia College,173.2587,-35.121322,1623571.9338320754,6113472.036651628
Whangaroa College,173.78695,-35.100861,1671723.0323376113,6115488.503729057
Kerikeri High School,173.955389,-35.228354,1686939.2932591673,6101214.728826866
Broadwood Area School,173.39499,-35.261248,1635928.6538992452,6097913.403846549
Okaihau College,173.765764,-35.323759,1669601.5741381308,6090783.394992885
Bay of Islands College,174.075901,-35.379502,1697724.215431652,6084339.007417304
Northland College,173.809917,-35.413889,1673533.0055402475,6080755.469419279
Te Kura Taumata o Panguru,173.383068,-35.380527,1634793.078141004,6084689.266164487
Opononi Area School,173.390212,-35.528555,1635377.0962998942,6068269.627578864
Tauraroa Area School,174.218169,-35.873069,1709968.9622632042,6029444.7998794215
Te Kamo High School,174.302813,-35.684394,1717888.7805610935,6050274.04120356
Tikipunga High School,174.328317,-35.683559,1720197.968028789,6050335.741069028
Whangārei Boys' High School,174.318379,-35.716116,1719250.1409971933,6046736.685454252
Whangārei Girls' High School,174.31955,-35.713289,1719360.2827773765,6047048.829138753
Pompallier Catholic College,174.275713,-35.744864,1715349.2362279259,6043599.013933028
Mangakahia Area School,174.058779,-35.732278,1695748.4694561986,6045228.48222287
Dargaville High School,173.868056,-35.931691,1678304.178641283,6023279.869698289
Bream Bay College,174.455784,-35.876079,1731415.7810109197,6028817.535838474
Otamatea High School,174.365259,-36.117231,1722868.7562463728,6002185.827696174
Ruawai College,174.011673,-36.122571,1691039.8336418709,6001982.643170397
Rodney College,174.520831,-36.28816,1736573.3384458118,5983016.712299873
Mahurangi College,174.655544,-36.406517,1748446.865359229,5969688.250722669
Orewa College,174.689747,-36.591698,1751153.511339145,5949091.459921878
Kaipara College,174.459138,-36.680156,1730374.1994515576,5939616.224573075
Long Bay College,174.738757,-36.691395,1755337.624179158,5937952.715786781
Rangitoto College,174.736684,-36.737197,1755060.3032024684,5932874.681437021
Kristin School,174.692243,-36.742989,1751080.6848068403,5932303.150439191
Glenfield College,174.714953,-36.779801,1753035.187298345,5928183.038552992
Birkenhead College,174.701151,-36.799175,1751765.2209312303,5926055.615811186
Northcote College,174.733677,-36.808881,1754647.6955251282,5924926.671423923
Carmel College,174.756742,-36.779176,1756765.864865587,5928184.707715388
Takapuna Grammar School,174.788477,-36.800616,1759553.5708646567,5925753.57361491
Westlake Boys High School,174.749491,-36.777366,1756122.4242127128,5928397.374848414
Westlake Girls' High School,174.752309,-36.782458,1756363.5734328823,5927827.845442636
Rosmini College,174.760146,-36.792443,1757042.5680972135,5926707.227192842
Rutherford College,174.646309,-36.85259,1746770.108543408,5920215.240012325
Macleans College,174.914424,-36.882722,1770608.1302081738,5916426.495459523
Green Bay High School,174.669395,-36.93095,1748676.3112613014,5911485.899333237
Massey High School,174.601693,-36.84188,1742812.1738420438,5921471.076533884
Waitakere College,174.620712,-36.867097,1744460.61977725,5918644.821184779
Henderson High School,174.628205,-36.883656,1745097.215634211,5916796.34191031
Liston College,174.623159,-36.866064,1744680.6956578759,5918755.720030689
St Dominic's Catholic College (Henderson),174.621071,-36.868859,1744489.3020997737,5918448.795732831
Western Springs College-Ngā Puna o Waiōrea,174.717535,-36.861976,1753101.7762675458,5919062.075992919
Selwyn College,174.838551,-36.86233,1763889.44867983,5918821.896247996
St Mary's College (Ponsonby),174.748234,-36.846003,1755870.977122316,5920784.533357596
St Paul's College (Ponsonby),174.73779,-36.854456,1754922.6543342583,5919863.710005209
Tyndale Park Christian School,174.922239,-36.974546,1771099.2197205864,5906224.673045618
Auckland Girls' Grammar School,174.753659,-36.856867,1756332.5759213502,5919570.357376397
Auckland Grammar School,174.768851,-36.869414,1757661.2215327292,5918153.3411127
Tamaki College,174.867271,-36.877943,1766415.935443669,5917039.984221267
Tangaroa College,174.892909,-36.972905,1768491.8973764377,5906459.044188736
Sacred Heart College (Auckland),174.872413,-36.868894,1766893.9438216563,5918034.970057469
Saint Kentigern Girls' School,174.803912,-36.865324,1760795.1417210083,5918548.627398958
Baradene College,174.800324,-36.865643,1760474.6213084243,5918519.273102658
St Peter's College (Epsom),174.769673,-36.867787,1757737.8407707624,5918332.491843358
Marcellin College,174.766435,-36.91013,1757362.2330555064,5913640.049449375
Epsom Girls Grammar School,174.776577,-36.876921,1758334.4164163263,5917307.681135865
Glendowie College,174.868137,-36.862578,1766526.4848337271,5918743.181808868
Dilworth School,174.781062,-36.880303,1758727.1687424127,5916925.011238877
Diocesan School For Girls,174.77947,-36.879258,1758587.4394503017,5917043.596673824
St Cuthbert's College (Epsom),174.77825,-36.887581,1758461.4960271493,5916122.218598345
Mt Albert Grammar School,174.725349,-36.884707,1753752.79622369,5916527.624116164
Marist College,174.726132,-36.881938,1753828.1349748895,5916833.56965326
Mt Roskill Grammar,174.747139,-36.912708,1755637.8654185142,5913385.696873862
Lynfield College,174.715436,-36.921035,1752796.8542507724,5912513.125268685
Bethlehem College,176.11123,-37.704974,1874282.6331048605,5822360.846902791
Avondale College,174.691137,-36.891482,1750690.4539636767,5915830.551281812
Edgewater College,174.874746,-36.922507,1766985.0221694629,5912082.631741812
Pakuranga College,174.901771,-36.89763,1769447.4448817475,5914795.025073627
Saint Kentigern College,174.875035,-36.909712,1767038.6802048068,5913501.709928201
Aidanfield Christian School,172.571,-43.563771,1565354.2904853506,5176486.908881084
Kelston Boys' High School,174.666886,-36.898785,1748515.2159360398,5915058.350928083
Kelston Girls' College,174.664361,-36.908063,1748272.267477799,5914032.934858162
One Tree Hill College,174.80696,-36.902825,1760988.0752601733,5914382.878960513
Onehunga High School,174.770963,-36.919501,1757746.3366829755,5912592.888036284
Howick College,174.939278,-36.90657,1772769.5013627207,5913735.851778666
Otahuhu College,174.840645,-36.953118,1763881.735414056,5908745.586303379
King's College,174.837266,-36.959802,1763566.5559435464,5908009.814671695
McAuley High School,174.847352,-36.944408,1764497.6861035274,5909700.3883966785
Mangere College,174.791589,-36.959618,1759500.0715580494,5908107.689831054
Auckland Seventh-Day Adventist H S,174.785003,-36.956393,1758920.3897713677,5908476.503341537
De La Salle College,174.837764,-36.964806,1763600.184477036,5907453.773128165
Papatoetoe High School,174.871805,-36.975523,1766607.488031466,5906205.71406178
Aorere College,174.833081,-36.981416,1763147.7852904783,5905618.950982792
Sir Edmund Hillary Collegiate Senior School,174.87553,-36.951275,1766992.0522938082,5908889.485130966
Manurewa High School,174.882302,-37.011253,1767463.5154596001,5902223.058733885
Te Haikura a Kiwa High School,174.885978,-37.03498,1767738.3961675982,5899584.062614914
Papakura High School,174.950801,-37.062945,1773440.669473757,5896364.968966921
Rosehill College,174.936559,-37.076585,1772143.4712707005,5894877.484411716
Pukekohe High School,174.905826,-37.204552,1769126.0378948255,5880734.4570420915
Wesley College,174.890163,-37.148293,1767860.420650518,5887004.415705776
Waiuku College,174.725723,-37.251019,1753048.058312398,5875885.287874739
Tuakau College,174.93426,-37.263023,1771517.0031529544,5874195.669965929
Onewhero Area School,174.916276,-37.332158,1769766.6238526406,5866557.223643417
Coromandel Area School,175.500031,-36.759266,1823162.4956588813,5928917.727106005
Mercury Bay Area School,175.698102,-36.841247,1840589.8800395983,5919340.3337890515
Thames High School,175.544879,-37.139546,1826039.1782790285,5886615.185558227
Hauraki Plains College,175.498679,-37.276618,1821533.546020039,5871514.024083251
Paeroa College,175.669282,-37.385437,1836320.6873896092,5859024.690333705
Waihi College,175.83115,-37.386212,1850651.83471707,5858520.60953602
Te Kauwhata College,175.151096,-37.400837,1790398.5264729608,5858488.505476868
Te Aroha College,175.693304,-37.541904,1837951.0091887251,5841600.417809629
Katikati College,175.921779,-37.552923,1858102.8981379753,5839774.195000779
Mount Maunganui College,176.207104,-37.662776,1882897.416302386,5826759.028634254
Huntly College,175.15226,-37.562095,1790092.3629909374,5840592.516374863
Ōtūmoetai College,176.129106,-37.678754,1875956.2283824063,5825218.40850702
Tauranga Boys' College,176.156216,-37.702139,1878260.1721590438,5822542.672216289
Tauranga Girls' College,176.144959,-37.712366,1877229.3264852846,5821441.004652733
Te Puke High School,176.318222,-37.788258,1892207.737720322,5812489.774183379
Matamata College,175.770385,-37.816276,1843861.7680452685,5810952.818949718
Raglan Area School,174.866613,-37.807418,1764318.571175057,5813910.874556449
Morrinsville College,175.534069,-37.650833,1823553.8922309298,5829903.693296207
Ngaruawahia High School,175.158665,-37.66004,1790408.1128776032,5829711.067113966
Fairfield College,175.27696,-37.76277,1800566.5983466175,5818064.307069734
St Paul's Collegiate (Hamilton),175.282196,-37.759246,1801037.4178623266,5818444.119686676
Hamilton Boys' High School,175.294802,-37.784988,1802077.905387947,5815560.346980305
Hamilton Girls' High School,175.277353,-37.789062,1800530.14389381,5815145.842930687
Raphael House Rudolf Steiner Area School,174.907713,-41.196228,1759968.77908941,5437704.991559266
Flaxmere College,176.788805,-39.623997,1925222.7719420404,5607110.8650646275
Fraser High School,175.244737,-37.784283,1797670.5382940692,5815745.658473418
St John's College (Hillcrest),175.317501,-37.791339,1804059.5517879531,5814806.243329057
Hillcrest High School,175.32629,-37.793283,1804828.1730716757,5814571.284264108
Sacred Heart Girls' College (Ham),175.29528,-37.791585,1802102.0235857824,5814827.241116002
Waikato Diocesan School For Girls,175.267808,-37.764497,1799755.6879118388,5817892.255449103
St Peter's School (Cambridge),175.428899,-37.890555,1813583.246156097,5803546.707330456
Cambridge High School,175.470878,-37.878116,1817311.7763255783,5804830.119629724
Trident High School,176.975956,-37.973481,1949272.6153845743,5789663.987264973
Whakatane High School,176.985794,-37.962394,1950189.949997086,5790857.813801839
Rangitaiki College – Te Kura Tuarua o Rangitaiki,176.827537,-37.967933,1936255.0916107083,5790827.241054485
Te Awamutu College,175.314937,-38.006315,1803241.3514772807,5790955.395609155
Opotiki College,177.288103,-38.013132,1976502.3911769916,5784042.1916340655
Western Heights High School,176.221187,-38.119568,1882387.5236701742,5776015.475048533
Rotorua Boys' High School,176.237477,-38.13727,1883747.3380651937,5774000.854748313
Rotorua Girls' High School,176.238386,-38.147857,1883785.9616311146,5772822.943876299
Rotorua Lakes High School,176.30233,-38.136755,1889434.879551385,5773857.420758054
Ōtorohanga College,175.206037,-38.179869,1793221.5015266798,5771927.886987439
Tokoroa High School,175.861524,-38.226207,1850485.1100556839,5765214.159501393
Forest View High School,175.842948,-38.220079,1848879.631000156,5765944.436393947
Te Kuiti High School,175.154846,-38.332231,1788343.366031678,5755124.987453232
Benneydale School,175.369183,-38.521675,1806539.127173451,5733641.100468123
Piopio College,175.014155,-38.472653,1775704.677650136,5739819.211436775
Reporoa College,176.344112,-38.437349,1891889.8481587449,5740359.607912685
Tauhara College,176.104929,-38.697481,1870031.4924858245,5712216.455921662
Taupo-nui-a-Tia College,176.078757,-38.681065,1867816.1299743266,5714115.523777511
Taumarunui High School,175.248127,-38.863298,1795054.0445623116,5695991.408278188
Waitara High School,174.245055,-38.996615,1707818.4178012605,5682861.817071232
New Plymouth Boys' High School,174.086318,-39.061546,1693985.80614213,5675832.0639883755
New Plymouth Girls' High School,174.09477,-39.054795,1694726.0940276578,5676572.493739236
Spotswood College,174.036087,-39.071205,1689627.613950032,5674810.875138634
Sacred Heart Girls' College (N Plymouth),174.102287,-39.052621,1695379.4515669816,5676805.898084497
Francis Douglas Memorial College,174.053406,-39.081129,1691113.078935818,5673692.324333893
Ohura Valley Primary,174.984709,-38.844333,1772242.7957171933,5698626.207389639
Inglewood High School,174.18992,-39.156657,1702811.1779030566,5665164.609658252
Stratford High School,174.29667,-39.339665,1711744.0129707102,5644727.6951555405
Taranaki Diocesan School for Girls,174.281298,-39.331771,1710431.666348611,5645622.690992208
Opunake High School,173.851541,-39.45064,1673266.9400214357,5632867.505565128
Ruapehu College,175.412796,-39.41725,1807707.6177387927,5634141.210883008
Patea Area School,174.481481,-39.76142,1726900.382327363,5597672.828884511
Whanganui City College,175.046397,-39.931369,1774861.2106582439,5577855.2703254605
Whanganui Girls' College,175.055093,-39.919788,1775633.931006157,5579123.699248906
Whanganui High School,175.031552,-39.933791,1773586.513819716,5577615.414313868
Cullinane College,175.047245,-39.913342,1774979.5803060643,5579854.629601446
Longburn Adventist College,175.558142,-40.388364,1817131.8437682106,5525994.740009311
Whanganui Collegiate School,175.038219,-39.929603,1774166.8394806164,5578067.294879853
Rangitīkei College,175.384373,-40.06965,1803332.5968790024,5561787.9242331395
Nga Tawa Diocesan School,175.398803,-40.067539,1804569.5897688586,5561989.175996808
Feilding High School,175.57363899999999,-40.214241,1819009.3438073797,5545286.719225472
Awatapu College,175.600207,-40.372424,1820754.725830223,5527660.111316074
Hato Paora College,175.659639,-40.151741,1826536.5311561483,5552009.12599279
Freyberg High School,175.627632,-40.337826,1823197.4830645053,5531432.184305652
Queen Elizabeth College,175.604574,-40.346901,1821208.9903487458,5530482.651856228
Palmerston North Boys' High School,175.609856,-40.34797,1821654.1441436177,5530350.749335564
Palmerston North Girls' High School,175.619197,-40.367122,1822384.5785664755,5528201.113804717
St Peter's College (Palmerston North),175.605351,-40.334097,1821316.858811167,5531902.15106803
Manawatū College,175.277659,-40.466437,1793099.0983069977,5517979.095147114
Ngata Memorial College,178.324251,-37.893015,2068299.8532061158,5792669.409311115
Lytton High School,178.000182,-38.643869,2035259.0328596998,5710865.215897472
Gisborne Boys' High School,178.009033,-38.658874,2035938.7064782996,5709156.631691765
Gisborne Girls' High School,178.008233,-38.655219,2035891.2637152916,5709566.362921165
Campion College,177.989404,-38.647793,2034296.5386083976,5710480.661747279
Tolaga Bay Area School,178.300177,-38.373074,2063126.4831512724,5739471.337844697
Wairoa College,177.414175,-39.035347,1982119.6827808388,5670020.294267854
Taradale High School,176.849976,-39.542065,1930865.1153752268,5615984.1268223375
Napier Boys' High School,176.916453,-39.514768,1936711.8621337772,5618767.972558046
Napier Girls' High School,176.915037,-39.48566,1936730.776609432,5622005.150316835
Tamatea High School,176.870977,-39.51829,1932784.140572303,5618546.296844332
Sacred Heart College (Napier),176.911425,-39.482828,1936433.6877241642,5622333.105321992
William Colenso College,176.895837,-39.506065,1934980.7709950693,5619811.2952181455
Te Wharekura o Ruatoki,177.007448,-38.148073,1951202.9999396494,5770162.166300404
St Joseph's Maori Girls' College,176.85548,-39.526564,1931412.0937187297,5617684.905917093
Havelock North High School,176.894777,-39.666613,1934116.2332218434,5601989.468673269
Iona College,176.878964,-39.679047,1932699.5564278066,5600667.754322363
Woodford House,176.880403,-39.684214,1932798.167289936,5600088.708976858
St John's College (Hastings),176.857153,-39.639766,1931015.9692100994,5605109.932834597
Hastings Boys' High School,176.834935,-39.650209,1929059.1238743921,5604032.246380252
Hastings Girls' High School - Ngā Rau Huia o Ākina,176.834762,-39.627208,1929153.4794772249,5606586.6801286815
Karamū High School,176.866437,-39.646515,1931780.6248426698,5604326.265350516
Lindisfarne College,176.836815,-39.625798,1929336.4426460336,5606735.694544974
Taikura Rudolf Steiner School,176.845372,-39.636362,1930020.8602554384,5605531.3123617405
Te Aute College,176.629411,-39.826457,1910625.9771506912,5585198.338282161
Central Hawkes Bay College,176.56094,-40.00178,1903987.201463516,5565968.667660594
Dannevirke High School,176.101029,-40.20134,1863945.556240729,5545282.670310278
Tararua College,175.834844,-40.456045,1840379.650749042,5517763.949048796
Horowhenua College,175.279764,-40.621227,1792832.8883629835,5500790.557152226
Waiopehu College,175.296334,-40.629314,1794211.129268931,5499856.308722605
Otaki College,175.153793,-40.759363,1781800.8729698737,5485723.885410397
Wairarapa College,175.646283,-40.950301,1822734.8478141401,5463387.509325309
Solway College,175.630829,-40.9564,1821413.5766910217,5462749.6577373855
Mākoura College,175.666496,-40.961323,1824398.9717702786,5462112.044372812
Chanel College,175.655051,-40.960109,1823439.8169723323,5462276.17529448
Rathkeale College,175.687565,-40.898298,1826387.4081838494,5469055.081852068
St Matthew's Collegiate (Masterton),175.650439,-40.945161,1823102.0027641312,5463947.574132215
Kāpiti College,174.982229,-40.921084,1766911.965321314,5468111.673643381
Paraparaumu College,175.003987,-40.888259,1768827.6809795941,5471714.056048237
Kuranui College,175.451039,-41.092587,1805856.0636561085,5448069.792610441
Upper Hutt College,175.040548,-41.126202,1771290.4109537487,5445226.537168058
Heretaunga College,175.055075,-41.129088,1772502.3647915893,5444877.448323504
St Patrick's College (Silverstream),175.012684,-41.146109,1768900.1870581817,5443070.874046077
Aotea College,174.854396,-41.125156,1755665.8804097588,5445692.153365363
Mana College,174.831116,-41.127967,1753705.004566467,5445421.431464654
Porirua College,174.874459,-41.141261,1757311.6433216662,5443868.114255794
Bishop Viard College,174.839226,-41.140416,1754356.5998630135,5444024.997514121
Tawa College,174.830508,-41.164996,1753567.5177019427,5441311.543995949
Taita College,174.966401,-41.176079,1764940.8160398998,5439832.341797412
Naenae College,174.940755,-41.196633,1762738.610307916,5437598.713902536
St Bernard's College,174.916695,-41.210301,1760687.5478839786,5436126.019577246
Hutt Valley High School,174.901464,-41.216497,1759395.5360040732,5435466.170795743
Sacred Heart College (Lower Hutt),174.906699,-41.213997,1759840.484224088,5435734.112130009
Chilton Saint James School,174.913594,-41.210241,1760427.706936218,5436138.408376021
St Oran's College,174.916426,-41.204307,1760679.663976558,5436791.981510827
Waipa Christian School,175.329509,-38.021232,1804479.407945226,5789268.035867398
Newlands College,174.82276,-41.218096,1752793.9269369394,5435429.988055762
Onslow College,174.797672,-41.231916,1750659.0825692506,5433939.4739660965
Wellington Girls' College,174.780673,-41.275422,1749135.3555097322,5429138.706140287
Wellington High School and Com Ed Centre,174.774692,-41.300724,1748576.9812510693,5426339.882836849
Wellington East Girls' College,174.785007,-41.302357,1749436.8589123914,5426140.871285822
Wellington College,174.781374,-41.303611,1749129.8414002203,5426007.899299195
St Patrick's College (Kilbirnie),174.795985,-41.313833,1750329.5803028743,5424847.812932066
Rongotai College,174.80066,-41.321848,1750702.4391986176,5423949.854087931
Queen Margaret College,174.780666,-41.272425,1749141.5928528234,5429471.450618414
TKKM o Hoani Waititi,174.631691,-36.907202,1745363.2186982243,5914178.749205919
Samuel Marsden Collegiate School,174.744353,-41.283945,1746074.3376661888,5428254.2190802805
Scots College,174.818441,-41.326932,1752178.814002403,5423354.368134522
Te Kura Amorangi o Whakawatea,175.271398,-37.82414,1799911.0672765826,5811265.98991218
Otamatea Christian School,174.35851,-36.109236,1722273.7293813354,6003081.195602776
St Catherines College (Kilbirnie),174.792481,-41.318044,1750026.6125522451,5424386.362275205
St Mary's College (Wellington),174.77518,-41.275812,1748674.3998006755,5429104.828448533
Queen Charlotte College,174.02315,-41.279741,1685684.2406734016,5429683.519879034
Marlborough Boys' College,173.955063,-41.51902,1679689.3313708398,5403183.910332038
Marlborough Girls' College,173.944437,-41.507454,1678816.7304867902,5404477.725528042
Collingwood Area School,172.680023,-40.682214,1572960.5885457825,5496470.005939979
Rai Valley Area School,173.58169,-41.234081,1648747.64486638,5435094.088703738
Golden Bay High School,172.808357,-40.848048,1583845.5676947336,5478093.158224043
Nayland College,173.232706,-41.305048,1619480.428511719,5427352.704781907
Nelson College,173.275569,-41.285573,1623075.4682016135,5429504.223638481
Nelson College For Girls,173.283181,-41.279353,1623715.1306787839,5430192.686994656
Waimea College,173.196869,-41.337691,1616472.1960520723,5423736.239824783
Tapawera Area School,172.824973,-41.39319,1585367.7818194106,5417578.845892446
Motueka High School,173.004622,-41.11485,1600388.0417447127,5448493.360950815
Murchison Area School,172.32653,-41.799472,1544049.9014505285,5372268.602753067
Karamea Area School,172.116111,-41.249398,1525944.1007851611,5433180.14897443
Buller High School,171.605043,-41.747593,1484016.2388890372,5377307.401197001
Greymouth High School,171.197216,-42.462775,1451782.1700204092,5297265.819706636
John Paul II High School,171.21203,-42.451508,1452973.7911172346,5298542.711616512
Westland High School,170.972914,-42.717508,1434017.8454263667,5268562.398036056
South Westland Area School,170.553275,-43.142307,1401028.31860451,5220476.039402927
Kaikōura High School,173.674454,-42.400438,1655505.2296081837,5305541.7520093545
Amuri Area School,172.848257,-42.771117,1587585.8677746458,5264590.598659539
Cheviot Area School,173.275547,-42.811459,1622527.937187731,5260085.2013883125
Oxford Area School,172.187986,-43.2942,1534130.5941855023,5206193.861352775
Hurunui College,172.637037,-42.92381,1570378.9420163413,5247582.020996728
Rangiora High School,172.598729,-43.298192,1567451.6543750516,5205992.458541487
Kaiapoi High School,172.646126,-43.387172,1571338.0668651268,5196128.150377777
St Bede's College,172.616872,-43.484055,1569018.1120334624,5185358.1538077025
Papanui High School,172.606715,-43.491042,1568200.424706136,5184578.362288343
Christchurch Adventist School,172.611436,-43.499023,1568586.2850752042,5183693.800240606
St Andrew's College (Christchurch),172.615873,-43.506368,1568948.7623236738,5182879.742524025
Burnside High School,172.57771,-43.50732,1565864.3568698056,5182759.069007494
Mairehau High School,172.648484,-43.494021,1571579.111529926,5184262.6283266
Shirley Boys' High School - Ngā Tama o Ōruapaeroa,172.708176,-43.494009,1576405.3467851786,5184282.610467415
Avonside Girls' High School,172.707457,-43.493984,1576347.2041682063,5184285.18287398
Rangi Ruru Girls' School,172.617787,-43.518903,1569109.876372898,5181488.337538148
Villa Maria College,172.567569,-43.528309,1565056.726730826,5180423.851411174
Christchurch Boys' High School,172.59842,-43.524811,1567547.817780161,5180824.831066552
Christchurch Girls' High School -Te Kura o Hine Waiora,172.611374,-43.524298,1568594.3814671815,5180886.77558434
Mangakino School,175.771411,-38.369528,1842118.316950349,5749547.404486341
Christ's College,172.62712200000001,-43.529721,1569869.708196134,5180290.32844395
St Thomas of Canterbury College,172.556212,-43.533612,1564142.147281612,5179830.07346065
St Margaret's College,172.622159,-43.519096,1569463.3152364027,5181468.51706297
Riccarton High School,172.566365,-43.535895,1564963.8273206593,5179580.852639225
Middleton Grange School,172.576521,-43.53625,1565784.5976867732,5179545.654467437
Te Puna Wai o Waipapa - Hagley College,172.623008,-43.537243,1569541.0634505865,5179453.445704436
Te Aratai College,172.667226,-43.538254,1573114.0927433916,5179356.407799048
Hornby High School,172.527635,-43.538179,1561836.0173796155,5179310.151838538
Hillmorton High School,172.592782,-43.55768,1567110.0763703699,5177172.218317951
Cashmere High School,172.623861,-43.56457,1569623.7090083833,5176418.844017963
Hillview Christian School,172.652801,-43.555741,1571956.7568304858,5177409.554106448
Marian College,172.612589,-43.485578,1568672.5512818615,5185187.409971321
Westminster Christian School,174.710163,-36.76112,1752644.753159862,5930263.218853836
Darfield High School,172.103661,-43.490028,1527523.9901096753,5184375.909048536
Lincoln High School,172.485673,-43.635766,1558512.837940789,5168452.033802573
Mount Hutt College,171.650321,-43.637617,1491133.7519024243,5167490.0044588735
Ellesmere College,172.292414,-43.757832,1543039.6216601671,5154780.39203843
Akaroa Area School,172.962434,-43.811179,1596978.6440943028,5149098.058301719
Ashburton College,171.750169,-43.892281,1499614.4750340765,5139332.005257403
Geraldine High School,171.248558,-44.091799,1459795.6546497897,5116439.866485047
Mackenzie College,170.825165,-44.101614,1425931.0261577975,5114541.326519866
Opihi College,171.293655,-44.23971,1463746.7375484756,5100086.835943708
Craighead Diocesan School,171.225493,-44.388302,1458661.1047314596,5083466.55527432
Roncalli College,171.245983,-44.402798,1460327.634524095,5081891.552114211
Mountainview High School,171.219535,-44.376707,1458158.5459479697,5084744.185587576
Timaru Boys' High School,171.230188,-44.400183,1459063.5901564613,5082154.946648859
Timaru Girls' High School,171.244212,-44.405382,1460192.765162991,5081601.5062706005
Waimate High School,171.047272,-44.73745,1445393.59347534,5044360.1453362405
Waitaki Valley School,170.464687,-44.7425,1399284.8811593873,5042526.947125955
Waitaki Boys' High School,170.99382,-45.076998,1442094.2868325918,5006538.223055637
Waitaki Girls' High School,170.974331,-45.088979,1440593.650769992,5005169.036565453
The Cathedral Grammar School,172.628555,-43.528058,1569984.6767629564,5180475.537133799
St Kevins College (Oamaru),170.983153,-45.064918,1441221.2343567135,5007859.2943783505
Maniototo Area School,170.099776,-45.125268,1371916.916142767,4999041.241477851
East Otago High School,170.721208,-45.478911,1421899.5406150634,4961320.517545188
Dunstan High School,169.386879,-45.245876,1316452.7884350717,4983382.221767271
Cromwell College,169.1945,-45.04349,1300295.4855653094,5005170.037402753
Wakatipu High School,168.749026,-45.025574,1265107.3166459256,5005411.920790456
Roxburgh Area School,169.311203,-45.538153,1312004.339956514,4950643.496026087
Logan Park High School,170.528807,-45.861858,1408175.885719406,4918331.155349769
Otago Boys' High School,170.495877,-45.870985,1405651.59953405,4917237.437883776
Otago Girls' High School,170.499657,-45.875699,1405961.381018775,4916722.908408459
St Hildas Collegiate,170.503674,-45.867322,1406243.9894747317,4917663.36721642
Kaikorai Valley College,170.467245,-45.881778,1403467.5485992245,4915968.169186891
Bayfield High School,170.523191,-45.895969,1407857.6364582903,4914527.857563952
Kings High School (Dunedin),170.494239,-45.902928,1405635.979894256,4913684.531577786
Queen's High School,170.491395,-45.90402,1405419.2013551898,4913556.27164711
Columba College,170.493983,-45.863466,1405478.3654860228,4918068.1915986
John McGlashan College,170.49783300000001,-45.85568,1405750.0766507483,4918942.603784578
Lawrence Area School,169.686813,-45.921137,1343092.482370131,4909375.596222417
Blue Mountain College,169.258764,-45.939858,1310000.3052680758,4905826.046325607
Tokomairiro High School,169.966921,-46.113193,1365625.1782268796,4888902.821042993
South Otago High School,169.728524,-46.246237,1347813.9115236443,4873390.06475318
The Catlins Area School,169.661394,-46.45314,1343609.6746705992,4850186.278506519
Northern Southland College,168.448746,-45.744018,1245973.7082631162,4924311.855312986
St Peter's College (Gore),168.924031,-46.107165,1285008.2130430653,4885964.800760547
Takitimu Primary School,168.032578,-45.974801,1215202.6541360957,4896743.523122859
Central Southland College,168.320121,-46.137197,1238538.5657110503,4880053.7316863965
Fiordland College,167.723689,-45.409262,1187125.2373137125,4958026.800124151
Menzies College,168.845934,-46.324828,1280241.2636953713,4861469.82714179
Waiau Area School,167.688882,-46.129567,1189731.8514852945,4877828.950508481
Southland Boys' High School,168.359101,-46.395635,1243233.097758004,4851519.273284385
Southland Girls' High School,168.36516,-46.417471,1243841.2695237948,4849120.720460169
Verdon College,168.397288,-46.41572,1246298.4965005144,4849459.717187946
Aparima College,168.016613,-46.353612,1216612.9893105899,4854582.934218731
Rangiora New Life School,172.598016,-43.320251,1567405.6102420518,5203542.429519707
Rudolf Steiner School (Chch),172.659135,-43.560087,1572470.3326803285,5176929.007233427
Richmond View School,173.943363,-41.526405,1678704.136440163,5402374.73870032
Faith City School,175.020933,-39.92043,1772712.6914301112,5579119.107749516
Michael Park School,174.815655,-36.893517,1761782.4692197118,5915400.862500789
Whangamata Area School,175.866532,-37.215339,1854360.4234533275,5877388.7543994645
Excellere College,174.298573,-35.669702,1717526.634961123,6051908.727768063
KingsWay School,174.683043,-36.605641,1750526.6676316995,5947555.153357886
Hukarere Girls' College,176.879131,-39.667401,1932769.8600885798,5601960.204944083
Springbank School,173.915476,-35.242004,1683293.193499216,6099735.081035259
Totara College of Accelerated Learning,176.111442,-40.190155,1864875.5754807875,5546493.395541141
Pinehurst School,174.704012,-36.739163,1752139.0442628874,5932708.979899303
ACG Strathallan,174.903703,-37.081862,1769210.8229879055,5894351.029667263
Hastings Christian School,176.845189,-39.658526,1929899.6132951993,5603071.111705364
Hamilton Christian School,175.26086,-37.721434,1799259.0897654202,5822685.738476555
Southern Cross Campus,174.816726,-36.964291,1761728.2673196916,5907546.842560349
Kadimah School,174.802674,-36.881083,1760651.7608036287,5916802.307834028
St Dominic's College,175.022669,-39.939407,1772813.314276124,5577009.276889747
Pukekohe Christian School,174.931297,-37.216711,1771359.0946115546,5879339.576345386
Atea College,174.854481,-36.901088,1765226.0366096033,5914494.329929918
Ambury Park Centre,174.771215,-36.953132,1757699.4483036262,5908861.215224037
TKK Motuhake o Tawhiuau,176.70927,-38.460994,1923666.423988189,5736513.163347387
Mana Tamariki,175.616143,-40.349078,1822184.5185365693,5530211.965366443
Manukau Christian School,174.899782,-37.027835,1768982.0807910354,5900352.364637502
Zayed College for Girls,174.792663,-36.978829,1759555.5772791859,5905974.472007815
OneSchool Global - New Zealand,174.786583,-36.930189,1759115.5741097736,5911381.129283916
Tongariro School,175.815059,-38.98579,1843830.299720649,5681030.188527607
Wainuiomata High School,174.936203,-41.251669,1762220.7647055713,5431497.00165151
City Impact Church School,174.722963,-36.721824,1753865.7946848406,5934602.33415086
Aquinas College,176.121982,-37.750885,1875060.686074617,5817233.673885394
Wentworth College,174.791292,-36.613154,1760193.50220175,5946546.541149752
Taumata School,176.110904,-37.751294,1874082.9114449094,5817220.821965098
Ngā Taiātea Wharekura,175.231112,-37.768016,1796513.6553847324,5817579.523009565
Sancta Maria College,174.90488,-36.957848,1769590.9817227586,5908108.364552204
Putāruru College,175.786837,-38.04016,1844566.7705828901,5786062.380656494
Taieri College,170.351398,-45.875915,1394456.8036733812,4916327.561255063
Reefton Area School,171.860874,-42.115241,1505830.0670816996,5336800.742133933
Te Kura o Hirangi,175.803419,-38.984401,1842826.664911018,5681215.495967947
Te Aho o Te Kura Pounamu,174.776608,-41.274444,1748797.1099763757,5429254.260003403
Drury Christian School,174.950061,-37.096351,1773298.7824685303,5892659.842062285
Kimi Ora School,174.94265,-41.197646,1762895.0078395316,5437482.700371353
Kingslea School,172.654959,-43.521749,1572115.3980016054,5181185.393952084
Te Whānau o Otu Mātua,172.569358,-43.562158,1565220.7557896804,5176665.362165052
Salisbury School (Nelson),173.195399,-41.337559,1616349.2328532625,5423751.172045189
Twizel Area School,170.098059,-44.255248,1368336.5109159704,5095680.796579448
Ponatahi Christian School,175.522456,-41.032158,1812048.8584456763,5454607.72749121
Waiheke High School,175.027745,-36.799898,1780903.2207954144,5925407.195273731
Catholic Cathedral College,172.646599,-43.53766,1571447.2881172893,5179415.502669002
John Paul College,176.229637,-38.143035,1883037.730349002,5773384.937439406
Mt Aspiring College,169.136772,-44.68733,1293864.3286660882,5044518.806974993
Trinity Catholic College,170.496588,-45.873943,1405717.0936102292,4916910.53227842
Waikato Waldorf School ( Rudolf Steiner),175.280722,-37.725574,1800998.6496018562,5822183.851047156
Al-Madinah School,174.792438,-36.97636,1759540.705731849,5906248.7795892265
Te Kura Toitu o Te Whaiti-nui-a-Toi,176.776491,-38.589193,1928948.8239383625,5722042.216315168
Whitby Collegiate,174.894118,-41.114985,1759025.0364366993,5446749.569803663
Aurora College,168.384079,-46.43114,1245383.7454337915,4847687.325943464
Taihape Area School,175.801514,-39.675966,1840280.7841499897,5604454.28824364
Te Waha O Rerekohu Area School,178.365549,-37.633719,2073591.401398264,5821260.45872435
Coastal Taranaki School,173.881545,-39.19286,1676127.4787028893,5661451.07701973
James Hargest College,168.384284,-46.390629,1245136.309999794,4852188.900508534
Mission Heights Junior College,174.931233,-36.963908000000004,1771923.797682878,5907388.762178086
Te Mātaitihi (Proposed opening date: 2027-01-25),172.572352,-43.57476,1565469.7554958127,5175267.037977632
Tangaroa College Teen Parent Unit,174.8926,-36.97311,1768463.937801322,5906436.846243467
Holy Family School (Wanaka),169.137627,-44.67979,1293892.3190282467,5045359.598141007
TKKM o Te Kura Kokiri,176.283679,-37.723435,1889417.7468810624,5819792.235098951
Te Kura o Te Wainui-ā-Rua,175.107522,-39.582597,1780995.7636705034,5616447.153603291
Albany Senior High School,174.695766,-36.730178,1751420.4069812978,5933718.866685675
Ormiston Senior College,174.918244,-36.96796,1770758.3048014315,5906962.56164389
Stonefields School,174.840539,-36.888313,1764011.088909313,5915935.743596325
Maraekakaho School,176.6179,-39.648542,1910438.9936316027,5604991.48665243
Te Wharekura o Te Kaokaoroa o Patetere,175.774428,-38.044284,1843463.9080637505,5785637.279597231
Mission Heights Primary School,174.931665,-36.962395,1771965.663958578,5907555.849863581
ACG Sunderland,174.633796,-36.864303,1745632.2429807363,5918934.918468871
Te Matauru Primary,172.583507,-43.314642,1566226.0577244808,5204159.570038955
Te Totara Primary School,175.266642,-37.719718,1799773.360366125,5822863.834489155
Knights Stream School- Mingimingi Hautoa,172.537934,-43.570862,1562688.2801695496,5175685.074946607
West Rolleston Primary School,172.355917,-43.606888,1548021.4353557255,5171586.229833198
Ararira Springs Primary- Te Puna o Ararira,172.492975,-43.648092,1559110.2007246083,5167086.718417515
Shotover Primary School,168.776627,-45.005745,1267166.6730619585,5007728.64069914
Hingaia Peninsula School,174.916184,-37.077445,1770330.1969878578,5894818.795542603
Te Kura o Nga Ruahine Rangi,174.229208,-39.423822,1705802.9556807003,5635468.9162377715
Te Uho O Te Nikau Primary School,174.926097,-36.976126,1771439.1119584944,5906042.431910994
Te Kura Rau Iti,174.921071,-36.984807000000004,1770972.274702988,5905088.310659435
Kauri Flats School,174.949754,-37.0442,1773390.2361827677,5898446.674941078
TKKM o Ngaringaomatariki,174.409953,-36.272816,1726640.4556238845,5984869.584629444
Kumeroa School,175.989711,-40.337633,1853958.3745457192,5530476.778820781
KingsGate School,174.884558,-37.220357,1767203.6002914293,5879018.602879577
Golden Grove School,174.783874,-36.918942,1758897.6322915666,5912633.468119135
Wentworth Primary,174.793868,-36.614512,1760421.0790639955,5946391.581699647
Big Rock Primary School,170.33023,-45.949295,1393087.1685275184,4908120.170965998
Ashburton Christian School,171.77209,-43.911169,1501406.3451981305,5137260.572091858
Henderson - Teen Parent Unit - He Wero o nga Wahine,174.628297,-36.883328,1745106.035681984,5916832.5915600695
Amesbury School,174.802131,-41.199095,1751108.3387694005,5437575.553460894
Rototuna Senior High School,175.262993,-37.715977,1799461.7448256086,5823286.751202424
Murihiku Young Parents' Learning Centre,168.378062,-46.40668,1244762.3998119375,4850377.704350429
Sancta Maria Catholic Primary School,174.903914,-36.959994,1769500.2114086759,5907871.986159334
Huanui College,174.361724,-35.668291,1723244.590108722,6051987.8440782465
Silverstream Christian School,175.014553,-41.15128,1769043.7505212524,5442493.152322135
Te Karaka Area School,177.866317,-38.469047,2024630.245071259,5730908.063344585
Tamaoho School,174.883229,-37.201786,1767126.6484444276,5881081.46567298
TKKM o Tuia te Matangi,173.190247,-41.334764,1615918.8400599908,5424062.420154475
Te Kura Māori o Ngā Tapuwae,174.814456,-36.964239,1761526.278788638,5907556.464060194
Kia Aroha Campus,174.892768,-36.980854,1768461.8145346178,5905577.354475831
Tai Wananga,175.305794,-37.775345,1803072.3777141671,5816606.6097265
Kingsview School,168.727617,-45.017714,1263374.5718057011,5006196.158272694
Pa Harakeke Teen Parent Unit,175.861546,-38.225977,1850487.8257611608,5765239.627412169
Te Wharekura o Nga Purapura o Te Aroha,175.315985,-38.003127,1803342.183602012,5791306.890521864
Bathgate Park School,170.492258,-45.900329,1405473.2409896357,4913968.453853026
Carisbrook School,170.484093,-45.895389,1404822.5728714878,4914497.343531972
Te Whata Tau o Putauaki,176.706585,-38.083373,1925114.1767372608,5778442.949036723
Rolleston College,172.388514,-43.603517,1550649.3165929373,5171980.495146607
Kawerau Putauaki School,176.685504,-38.089843,1923235.954054512,5777798.421217168
Murupara Area School,176.703043,-38.455354,1923148.093972639,5737161.17876225
Kahurangi School,174.820902,-41.328369,1752381.4258846622,5423190.506984758
Tarawera High School,176.709393,-38.087207,1925343.5359492137,5778007.48909612
Nelson Teen Parent Unit,173.277873,-41.268127,1623274.5962250144,5431440.37670738
Waikato Montessori Education Centre,175.340394,-37.827156,1805976.0106518022,5810781.326267177
Levin Teen Parent Unit,175.296346,-40.629522,1794211.5412858173,5499833.190881313
Ao Tawhiti Unlimited Discovery,172.635943,-43.535939,1570585.5091485737,5179602.921901399
Te Waka Unua School,172.672639,-43.545671,1573554.6692785518,5178534.418982467
Waitākiri Primary School,172.683844,-43.488844,1574435.8681613388,5184849.040715839
Lyttelton Primary School,172.723168,-43.602344,1577657.536873245,5172255.1683943495
Ormiston Primary School,174.920677,-36.968315,1770974.1139923173,5906918.808948249
Rāwhiti School,172.717708,-43.496105,1577176.8210265313,5184052.490471431
Haeata Community Campus,172.696693,-43.514761,1575485.3177912587,5181974.6116763335
Te Tipu Whenua o Pa Harakeke,176.788895,-39.62185,1925240.5672365353,5607348.917146192
Te Pā o Rākaihautū,172.672461,-43.52931,1573533.134661447,5180351.39653727
ACG Tauranga,176.115653,-37.771596,1874426.3116503058,5814953.588467303
Rototuna Junior High School,175.263497,-37.716113,1799505.808674199,5823270.585289352
Ormiston Junior College,174.919678,-36.967849,1770886.2182239776,5906972.304805793
Rolleston Christian School,172.392912,-43.608323,1551008.1636561037,5171449.342003637
Te Rōhutu Whio,172.402071,-43.615521,1551753.0484742965,5170655.289405482
Whakatane Teen Parent Unit,176.936281,-37.942698,1945930.6089998493,5793229.742355675
Te Kura Kaupapa Maori o Te Orini ki Ngati Awa,176.971491,-37.935029,1949062.5078147177,5793949.568005638
Te Pae School (Proposed opening date: 2027-01-01),174.601463,-36.818632,1742834.8904465926,5924050.608790673
Te Manawa ō Pāpāmoa School,176.317908,-37.721212,1892444.2325936852,5819932.48519496
Scott Point School,174.660507,-36.802388,1748132.7543356044,5925762.8982169395
Meraki Montessori School,174.660048,-36.603609,1748473.7858497559,5947816.373367552
Northland College Teen Parent Unit,173.806693,-35.408492,1673245.1731636438,6081356.429716906
Porangahau School,176.617012,-40.303781,1907408.2142772633,5532244.241772677
Te Kura Kaupapa Maori o Horouta Wananga,178.006862,-38.657548,2035757.7167476574,5709314.243375215
St Francis of Assisi Catholic School,172.639393,-43.499792,1570846.8590087767,5183618.568059853
Manukura,175.612776,-40.389659,1821765.3725855004,5525715.275644881
Te Kura o Te Whānau-a-Apanui,177.695838,-37.728925,2013912.197841072,5813868.119908743
Holy Trinity Catholic Primary School,174.940735,-37.036334,1772605.912081692,5899335.832966701
Te Kura Whakatipu o Kawarau,168.745336,-45.067998,1265064.7390102567,5000683.838439249
Te Kura O Take Kārara,169.15421,-44.701996,1295323.2267920724,5042955.121450693
Ngākōroa School,174.939358,-37.10547,1772326.8576210968,5891667.547071755
Summit Point School,174.762275,-36.790983,1757235.5221247526,5926865.70743636
Ahutoetoe School,174.652689,-36.615953,1747791.9839768582,5946458.287151666
Nukumea Primary School - Te Kura Tuatahi O Nukumea,174.669796,-36.578983,1749393.188459757,5950533.254178856
Matua Ngaru School,174.531646,-36.767615,1736698.1032283544,5929812.533898972
Fossil Bay School,175.006245,-36.773783,1779045.675855366,5928345.089266032
Te Ao Mārama School,175.239699,-37.720396,1797396.5960400223,5822845.767323706
Jireh Christian School,174.695235,-36.902175,1751034.5605881498,5914637.73614537
Auckland Montessori College,174.85385,-36.898538,1765175.3099363132,5914778.339511916
Central Auckland Specialist School,174.729805,-36.902464,1754114.2051087208,5914550.375629973
Suzanne Aubert Catholic School,176.334858,-37.723549,1893929.403319281,5819619.949201802
Future School,174.77428,-36.79117,1758306.3570764798,5926825.154755489
Vanguard Military School,174.698673,-36.751681,1751637.683112218,5931328.672171123
Te Rangihakahaka Centre for Science and Technology,176.23492,-38.127419,1883561.334956587,5775102.11280543
Te Kōpuku High,175.234796,-37.755802,1796870.569673342,5818927.146753965
Te Aratika Academy,176.892938,-39.617538,1934194.991799376,5607445.188412203
Pacific Advance Secondary School,174.844394,-36.941886,1764239.6806324706,5909985.302491237
South Auckland Middle School,174.88353,-37.040239,1767509.0919772687,5899004.889383156
Middle School West Auckland,174.631539,-36.85409,1745450.4039527343,5920071.423256902
Te Wharekura o Ngāti Rongomai,176.306038,-38.121026,1889822.2260085614,5775591.730372338
Rise UP Academy,174.80224,-36.966938,1760433.0210445612,5907277.663375644
Waatea School,174.801896,-36.961083,1760414.6842826563,5907927.842796998
Tūranga Tangata Rite,178.022022,-38.668323,2037012.1694522188,5708045.228425712
A1 Student School,174.85018,-36.85197,1764948.4367883971,5919951.27984741
Ko Taku Reo - Deaf Education New Zealand,172.75832,-43.580312,1580487.4568800633,5174710.892787449
Green School New Zealand,173.999084,-39.135823,1686347.6918800771,5667675.629515881
Crimson Global Academy,174.78253,-36.850781,1758919.1612127735,5920197.913780825
Te Kura ā Iwi o Pawarenga,173.289595,-35.337097,1626317.2270079053,6089534.6504547
Iqra School,174.681328,-36.907242,1749785.5269023327,5914097.5084287925
Motueka Steiner School,172.997548,-41.15233,1599794.2585509587,5444332.636022674
St Ignatius of Loyola Catholic College,174.930555,-37.130581,1771487.8891353752,5888897.357423208
Harvest Christian School,173.92457,-35.206448,1684157.3266354452,6103670.758419011
Liger Leadership Academy,168.743175,-45.012956,1264572.5746546588,5006789.369355054
TKKM o Tūtūtarakihi,173.253842,-35.087837,1623138.7481710662,6117186.61147999
Te Paepae o Aotea,174.274761,-39.584942,1709470.8810938548,5617532.429725799
Te Rau Horopito,172.372565,-43.623875,1549379.2111531259,5169709.925437102
Ahipara School,173.153602,-35.171776,1613987.0875134675,6107896.560140264
Aranga School,173.613785,-35.738759,1655501.1953203746,6044852.718180865
Arapohue School,173.94475,-36.007772,1685140.9179058603,6014776.82654403
Awanui School,173.254099,-35.03969,1623175.7784989697,6122525.945270998
Blomfield Special School and Resource Ctre,174.314314,-35.730665,1718860.8147553545,6045127.859379446
Dargaville Intermediate,173.865467,-35.933508,1678068.8421554565,6023080.406343233
Dargaville Primary School,173.866881,-35.939306,1678190.683209453,6022436.175423218
Glenbervie School,174.347871,-35.675883,1721979.1770967545,6051163.042103615
Herekino School,173.21125,-35.263626,1619214.8964872716,6097700.726645837
Hikurangi School,174.287271,-35.596131,1716610.526696855,6060082.457502015
Hora Hora School (Te Mai),174.308142,-35.736034,1718294.6728485345,6044539.796850467
Horeke School,173.579692,-35.360102,1652665.36408783,6086867.61922834
Hukerenui School Years 1-8,174.196639,-35.520589,1708501.784951651,6068564.758298997
Hurupaki School,174.289272,-35.687424,1716659.004955632,6049954.13132827
Kaeo School,173.788172,-35.100819,1671834.4452981676,6115492.281233433
Kaihu Valley School,173.738754,-35.799333,1666750.999857668,6038056.346574608
Kaikohe East School,173.806378,-35.40926,1673215.87690845,6081271.486169761
Kaikohe Intermediate,173.79698,-35.406625,1672364.9133985003,6081570.645157712
Kaikohe West School,173.791741,-35.407063,1671888.8189067065,6081525.889204914
Kaingaroa School (Kaitaia),173.330695,-35.024674,1630167.4622773442,6124170.711165806
Kaitaia Intermediate,173.258501,-35.104335,1623558.6902587628,6115355.9191059265
Kaitaia School,173.270974,-35.116436,1624691.779278554,6114010.914143281
Kaiwaka School,174.446412,-36.160034,1730102.0165783241,5997332.117762678
Totara Grove School,174.315335,-35.679487,1719029.2229659797,6050803.211860735
Te Kamo Intermediate School,174.305611,-35.687981,1718136.6901004573,6049872.815442402
Te Kamo School,174.297331,-35.68369,1717393.7301734234,6050358.694631604
Karetu School,174.152407,-35.373793,1704680.9398823222,6084893.9443304725
Kaurihohore School,174.289052,-35.643104,1716703.5923580555,6054870.2559240125
Kawakawa Primary School,174.066193,-35.383222,1696837.9566809626,6083935.968963239
Kerikeri Primary School,173.956451,-35.228343,1687035.9488061424,6101215.018609736
Kohukohu School,173.544154,-35.359777,1649436.8802979777,6086921.988731982
Kokopu School,174.13964000000001,-35.707274,1703093.473424322,6047919.8958192635
Mangamuka School,173.538868,-35.213724,1649044.6423731998,6103122.34634074
Mangawhai Beach School,174.57708,-36.128844,1741912.4133030742,6000608.995155942
Mangonui School,173.534413,-34.990484,1648771.9596141498,6127881.789118225
Matakohe School,174.179918,-36.132836,1706166.8829535616,6000673.277457783
Matarau School,174.222013,-35.657809,1710613.670264815,6053316.750777324
Matauri Bay School,173.896267,-35.043138,1681744.0465207272,6121805.948457277
Te Kura o Mātihetihe,173.283651,-35.436425,1625745.477349479,6078520.366033396
Maungakaramea School,174.202609,-35.844115,1708603.7268118898,6032673.761892961
Maungatapere School,174.205703,-35.755372,1709004.3323855936,6042513.583634292
Maungaturoto School,174.352788,-36.109601,1721758.123379013,6003047.890543729
Maunu School,174.272415,-35.744983,1715050.8459734232,6043589.689155938
Morningside School,174.322127,-35.734761,1719561.304781155,6044664.039033344
Motatau School,174.034799,-35.495902,1693855.5720339357,6071468.878988171
Ngataki School,173.046222,-34.744411,1604230.9072744541,6155299.214190568
Ngunguru School,174.512273,-35.62659,1736942.3604432833,6056414.024120612
Ohaeawai School,173.883892,-35.35262,1680310.1284630378,6087493.134916374
Okaihau Primary School,173.764381,-35.323742,1669475.8829974912,6090786.250975739
Te Kura o Ōmanaia,173.524334,-35.456578,1647579.2730136174,6076195.968557623
One Tree Point School,174.464105,-35.831251,1732241.4213399247,6033778.789049704
Onerahi School,174.367387,-35.758065,1723618.4124858242,6042023.040994396
Opua School,174.11777,-35.314587,1701608.6078200252,6091496.546002245
Oromahoe School,173.972248,-35.318809,1688375.1760035572,6091167.785784945
Oruaiti School,173.588927,-35.003367,1653738.6880097194,6126425.119697938
Otaika Valley School,174.300066,-35.787003,1717489.342649277,6038896.05994223
Te Kura O Otangarei,174.320624,-35.695145,1719484.5134859409,6049060.029756259
Oturu School,173.285688,-35.09327,1626039.9234955064,6116576.244178963
Paihia School,174.090494,-35.283576,1699166.8678433017,6094963.552094828
Pakaraka School,173.957843,-35.35626,1687025.5864232075,6087026.938333416
Pakiri School,174.727024,-36.264923,1755137.419136363,5985283.7900684755
Pakotai School,173.900725,-35.688408,1681499.4267648386,6050237.020229774
Pamapuria School,173.351826,-35.132798,1632052.8181744476,6112173.3476799065
Paparoa School,174.233448,-36.099534,1711030.5196199566,6004307.465197093
Paparore School,173.202855,-35.027928,1618504.5760254872,6123841.017289198
Parua Bay School,174.479467,-35.769841,1733731.9637090284,6040569.680998111
Peria School,173.487626,-35.098683,1644443.3751762572,6115904.532938297
Pompallier Catholic School,173.26084,-35.114878,1623768.7959477317,6114186.159610489
Poroti School,174.139016,-35.739143,1702995.9889044852,6044385.752078038
Portland School Te Kura o Tikorangi,174.326546,-35.798856,1719864.7176487716,6037549.23848776
Pouto School,174.101868,-36.28565,1698951.2145411347,5983804.894761723
Pukenui School (Kaitaia),173.116469,-34.817188,1610651.5746953248,6147223.60448958
Pukepoto School,173.213725,-35.159075,1619464.9563584174,6109294.9853451755
Purua School,174.108323,-35.632312,1700354.1731143016,6056266.763332039
Raurimu Avenue School,174.362661,-35.763896,1723182.142210327,6041382.2148716375
Rawene School,173.506254,-35.403696,1645968.6799022497,6082069.434050531
Ruakākā School,174.440861,-35.89824,1730032.3248246384,6026379.319621624
Ruawai Primary School,174.011042,-36.121583,1690984.1886605446,6002092.825257914
Russell School (Bay Of Islands),174.123766,-35.262172,1702219.5612661869,6097303.658202568
Selwyn Park School,173.87598499999999,-35.932934,1679018.205297312,6023135.610674396
St Joseph's Catholic School (Dargaville),173.862788,-35.935344,1677825.379314081,6022878.901144655
Te Kura o Hato Hohepa Te Kamura,173.712928,-35.070013,1665000.9729146531,6118960.348221362
Tangiteroria School,174.048431,-35.821654,1694706.5727139001,6035325.267555975
Tangowahine School,173.934923,-35.865281,1684406.6527287583,6030590.195638489
Tapora School,174.302849,-36.351256,1716902.7789462642,5976303.080387434
Tauhoa School,174.452893,-36.378084,1730322.0781052285,5973135.036658589
Te Hapua School,172.909436,-34.517654,1591687.6826378296,6180441.425855236
Te Horo School (Whangarei),174.017985,-35.620325,1692187.9017023088,6057684.719403718
Te Kopuru School,173.922792,-36.029759,1683138.9081430214,6012357.002691422
Te Takarangi,173.996339,-35.138784,1690765.3639964932,6111111.896093367
Tikipunga Primary School,174.324242,-35.685964,1719825.6073966774,6050073.96255932
Tinopai School,174.245318,-36.247162,1711888.9543442097,5987918.08299643
Tomarata School,174.633729,-36.231302,1746818.9825007033,5989158.908065232
Totara North School,173.712486,-35.038968,1664985.2642504333,6122403.531084467
Umawera School,173.574373,-35.285067,1652230.3590450278,6095192.115809388
Waihārara School,173.185822,-34.934849,1616970.0043931813,6134166.136534728
Waima School,173.58652,-35.48925,1653200.7086561122,6072540.688294139
Waiotira School,174.198942,-35.938725,1708143.7995120857,6022183.660296882
Waipu School,174.443368,-35.987835,1730111.5990672808,6016437.689940338
Wellsford School,174.515608,-36.284045,1736111.4185329964,5983480.55405697
Whananaki School,174.454687,-35.514436,1731911.1121439624,6068932.628987167
Whangarei Heads School,174.516025,-35.822317,1736946.6516679141,6034698.365718571
Whangarei Intermediate,174.316797,-35.722292,1719097.8446295133,6046053.572194706
Whangarei School,174.3218,-35.717559,1719557.4392577491,6046572.4666372575
Whau Valley School,174.314857,-35.700434,1718954.8529632683,6048480.385639885
Renew School,174.316496,-35.730346,1719058.6312884588,6045160.596318611
Lake Taupo Christian School,176.101668,-38.697054,1869749.4324728122,5712273.468648202
TKKM o Takapau,176.349137,-40.025569,1885803.093380823,5564029.397183357
TKKM o Nga Mokopuna,174.831726,-41.320703,1753305.2409333813,5424022.536243561
Te Rangi Aniwaniwa,173.289687,-35.070132,1626411.8823686065,6119141.154054482
Nelson Christian Academy,173.244053,-41.31628,1620426.8100771932,5426103.1686677225
Sonrise Christian School,177.992676,-38.641969,2034616.7918938582,5711111.917647549
TKKM o Te Puaha o Waikato,174.724639,-37.392886,1752664.5654492653,5860146.50983789
TKKM o Te Koutu,176.234359,-38.119256,1883543.757407399,5776009.895960676
TKKM o Te Rawhiti Roa,174.326641,-35.677213,1720055.807591898,6051041.67865771
Horizon School,174.731165,-36.427977,1755185.422337015,5967188.548053928
Everglade School,174.895434,-36.997085,1768663.2636480213,5903771.804936854
TKKM o Ruamata,176.322678,-38.095665,1891382.217695318,5778354.610425669
Wanaka Primary School,169.136735,-44.683945,1293843.5402128513,5044894.687415984
Emmanuel Christian School,172.588279,-43.478668,1566702.9605712686,5185945.385453497
Paeroa Christian School,175.664909,-37.366647,1835992.3731033243,5861120.809505906
Whakatane S D A School,176.975389,-37.96151,1949279.6076645677,5790995.100530363
Cornerstone Christian School,175.650623,-40.331,1825173.3289560282,5532131.705504048
Kaikohe Christian School,173.806566,-35.411304,1673231.0977140428,6081044.652279936
Te Huruhi School,175.028103,-36.800746,1780933.1673984583,5925312.4327358715
Tasman Bay Christian School,173.055609,-41.195405,1604662.9626896938,5439549.27015104
Maranatha Christian School,174.913914,-41.182642,1760521.9750445324,5439201.902946668
Hāwera Christian School,174.275137,-39.595129,1709487.1328208598,5616401.341351614
Matahui School,175.947272,-37.598693,1860195.9183525685,5834624.171250362
Matamata Christian School,175.762633,-37.816167,1843179.6274772855,5810985.136982793
Tauranga Waldorf School,176.205671,-37.728787,1882520.0614319562,5819436.763349557
Wā Ora Montessori,174.962095,-41.201665,1764515.5255810767,5436999.891478171
Elim Christian College,174.915749,-36.913922,1770656.7053163175,5912962.522667885
Dunedin Rudolf Steiner School,170.565766,-45.859004,1411035.0704777625,4918736.428492439
Red Beach School,174.701332,-36.60918,1752155.569853833,5947133.717970339
Adventure School,174.890084,-41.120037,1758674.1642356096,5446196.054253462
Ahuroa School,174.553401,-36.473168,1739168.2665967413,5962446.602253359
Aka Aka School,174.803977,-37.283231,1759920.5615793804,5872181.817940339
Albany School,174.690624,-36.736702,1750948.4458510485,5933003.197929561
Alfriston School,174.940054,-37.016728,1772589.7107116235,5901512.381845437
Anchorage Park School,174.867013,-36.919697,1766302.274364204,5912407.913733871
Arahoe School,174.674452,-36.922866,1749142.4755957087,5912374.880733076
Ararimu School,175.037192,-37.140652,1780937.3390172445,5887581.84650971
Ardmore School,174.999905,-37.033892,1777874.680198199,5899497.7221173085
Arohanui Special School,174.652675,-36.881324,1747282.5051393546,5917017.577813575
Northern Health School,174.762424,-36.864132,1757099.1372186625,5918749.951803571
Auckland Normal Intermediate,174.765702,-36.885383,1757347.7442561253,5916386.843689138
Avondale Intermediate,174.692917,-36.890869,1750850.2822770816,5915895.747651072
Avondale Primary School (Auckland),174.698538,-36.896286,1751340.4935717692,5915285.856677662
Awhitu District School,174.616355,-37.113261,1743608.543392785,5891340.650609052
Sir Douglas Bader Intermediate School,174.801426,-36.967322,1760359.7473834096,5907236.430282479
Bailey Road School,174.827157,-36.909115,1762774.2953072109,5913650.739313584
Sir Edmund Hillary Collegiate Middle School,174.878555,-36.950392,1767263.3485563956,5908982.146452146
Bairds Mainfreight Primary School,174.86696,-36.959509,1766211.024681033,5907990.919582996
Balmoral School (Auckland),174.745822,-36.884573,1755577.6579872072,5916509.307231151
Bayfield School,174.731367,-36.847738,1754363.5109861884,5920619.438669071
Bayswater School,174.787647,-36.809716,1759460.6404849729,5924745.359112009
Bayview School,174.706554,-36.772258,1752300.5594295824,5929033.2866166495
Beach Haven School,174.691075,-36.7939,1750876.582581906,5926656.787193352
Beachlands School,174.999507,-36.884661,1778186.8318874985,5916055.850818822
Belmont Intermediate,174.789451,-36.803593,1759634.289914913,5925421.664568918
Belmont School (Auckland),174.791388,-36.806214,1759801.6543434807,5925127.641447296
Birdwood School,174.601802,-36.85602,1742795.5853495724,5919902.183700869
Birkdale Intermediate,174.700666,-36.796118,1751727.9806117602,5926395.539479706
Birkdale North School,174.701508,-36.790698,1751813.805825356,5926995.515967297
Birkdale Primary School,174.703494,-36.800327,1751971.9882368068,5925924.087395156
Birkenhead School,174.723844,-36.811005,1753766.246124743,5924706.88912325
Blockhouse Bay Intermediate,174.694022,-36.918925,1750893.4739641845,5912781.323826057
Blockhouse Bay School,174.702162,-36.924902,1751606.7589108623,5912105.289417055
Bombay School,174.995081,-37.185533,1777091.9571290796,5882681.595639128
Botany Downs School,174.922774,-36.912085,1771286.6742688925,5913153.739871092
Brookby School,174.993987,-36.987433,1777456.2970202705,5904663.501248397
Browns Bay School,174.744662,-36.721853,1755803.6934055418,5934564.040965367
Bruce McLaren Intermediate,174.627079,-36.895336,1744974.76947396,5915502.229847564
Buckland School,174.926351,-37.228336,1770893.9610652493,5878058.67125636
Bucklands Beach Intermediate,174.910452,-36.883126,1770253.2222478176,5916388.7668270115
Bucklands Beach Primary School,174.908001,-36.865755,1770073.3009437458,5918320.419741688
Campbells Bay School,174.759313,-36.754727,1757045.1820880887,5930892.957352823
Chaucer School,174.694563,-36.914455,1750950.4795754512,5913276.393138545
Chelsea School,174.70762,-36.816259,1752308.5358910556,5924149.966422383
Christ the King Catholic School (Owairaka),174.720694,-36.904106,1753299.1201651907,5914382.885253869
Churchill Park School,174.873571,-36.851496,1767035.0471278033,5919963.207788075
Clayton Park School,174.896892,-37.041063,1768695.7184711648,5898889.839621754
Clendon Park School,174.870791,-37.017939,1766424.723462089,5901501.447627516
Clevedon School,175.038957,-36.990305,1781452.0740245355,5904260.058313137
Sir Edmund Hillary Collegiate Junior School,174.877275,-36.950212,1767149.7615914154,5909004.363757224
Coatesville School,174.64439,-36.717952,1746855.7947646051,5935155.233617367
Cockle Bay School,174.939225,-36.905057,1772768.192218981,5913903.814184766
Colwill School Massey,174.632881,-36.834051,1745608.0542693627,5922292.567232065
Conifer Grove School,174.911616,-37.048539,1769988.6190037387,5898034.140296304
Cornwall Park District School,174.789077,-36.892542,1759416.0679616171,5915553.777306075
Cosgrove School,174.957852,-37.054111,1774087.8145348364,5897332.227402957
Dairy Flat School,174.638892,-36.667771,1746459.9226977278,5940730.758153283
Dawson School,174.893387,-36.974375,1768531.206726655,5906295.102258889
Devonport Primary School,174.799486,-36.828336,1760477.8993576518,5922659.739803791
Dominion Road School,174.743731,-36.904869,1755350.1495037696,5914260.959329622
Don Buck School,174.609884,-36.851211,1743525.1171273566,5920423.592050606
Drury School,174.949723,-37.098797,1773263.1691818305,5892389.06854458
East Tamaki School,174.88653299999999,-36.96255,1767947.0555058746,5907619.18894951
Edendale School (Auckland),174.737208,-36.887372,1754804.307987339,5916212.780478118
Edmonton School,174.642282,-36.865667,1746386.1180091188,5918770.6132608615
Edmund Hillary School,174.95773,-37.067381,1774046.6347934082,5895860.114228295
Ellerslie School,174.805734,-36.898634,1760887.6384655996,5914849.926068155
Elm Park School,174.889952,-36.910383,1768366.2302605913,5913401.030028314
Epsom Normal School,174.770541,-36.890747,1757767.9604861902,5915783.73835844
Fairburn School,174.849834,-36.947799,1764711.4140782116,5909319.874529721
Farm Cove Intermediate,174.891,-36.896484,1768490.1727076434,5914941.251622618
Favona School,174.806963,-36.953953,1760880.8225074396,5908710.3556729155
Ferguson Intermediate (Otara),174.882443,-36.964274,1767579.1297720314,5907435.116629343
Finlayson Park School,174.871991,-37.032006,1766500.7683451057,5899938.611802551
Flanshaw Road School,174.645463,-36.860805,1746678.9768109745,5919305.138897875
Flat Bush School,174.883673,-36.97529,1767664.4640351895,5906210.732814817
Forrest Hill School,174.749433,-36.773717,1756124.6504965886,5928802.303535098
Freemans Bay School,174.75281,-36.852048,1756266.6970276535,5920106.392117208
Freyberg Community School,174.651176,-36.871038,1747168.6477881954,5918161.059559751
Fruitvale Road School,174.667362,-36.915651,1748524.9198744367,5913186.415941324
Gladstone School (Auckland),174.71247,-36.880183,1752614.0060704728,5917050.213582691
Glamorgan School,174.735313,-36.702673,1755007.2632997443,5936707.0847150665
Glen Eden Intermediate,174.652547,-36.924551,1747188.0168671664,5912221.980783499
Glen Eden School,174.652086,-36.90865,1747177.5158448832,5913986.823285129
Glen Innes School,174.857045,-36.874151,1765512.6636433073,5917478.4801931335
Glen Taylor School,174.863975,-36.869826,1766139.744653554,5917946.28741437
Glenavon School,174.701981,-36.909858,1751620.426007098,5913774.640703272
Glenbrae Primary School,174.870065,-36.873361,1766674.9290528079,5917543.470263351
Glenbrook School,174.75142,-37.204955,1755421.7678589073,5880954.284882665
Glendene School,174.655175,-36.886855,1747494.6741776376,5916400.084597577
Glendowie School,174.87568,-36.863143,1767197.7071670885,5918667.312159023
Glenfield Intermediate,174.732175,-36.779792,1754572.157223966,5928156.346190552
Glenfield Primary School,174.727633,-36.779642,1754167.1132715286,5928180.317583296
Good Shepherd School (Balmoral),174.743509,-36.891182,1755358.1214676183,5915779.836170934
Green Bay Primary School,174.672668,-36.931682,1748966.4028744905,5911399.577472704
Greenhithe School,174.675395,-36.774022,1749516.1345752073,5928886.731838287
Greenmeadows Intermediate,174.906355,-37.029261,1769563.6252963452,5900182.448925876
Grey Lynn School,174.735488,-36.863128,1754699.9286679225,5918905.327196401
Halsey Drive School,174.719184,-36.93271,1753107.3657370948,5911211.818767845
Harrisville School,174.951571,-37.239972,1773104.9372406192,5876721.768914987
Hauraki School,174.77445,-36.803869,1758295.3821234084,5925415.987522439
Hay Park School,174.744285,-36.92368,1755361.3372732876,5912173.049808027
Helensville School,174.453861,-36.679301,1729904.1074193849,5939718.2379447725
Henderson Intermediate,174.627984,-36.867743,1745107.6296703364,5918562.122957073
Henderson North School,174.626326,-36.869724,1744956.091456874,5918344.862932518
Henderson School,174.63628,-36.881193,1745821.557851989,5917057.288271779
Henderson South School,174.622353,-36.888586,1744566.3779264062,5916258.271433713
Henderson Valley School,174.59229,-36.899044,1741867.9332466323,5915143.151440119
Hillpark School,174.89837,-37.013244,1768888.7807053272,5901973.7519313395
Hillsborough School,174.757733,-36.923253,1756560.1126991399,5912198.424206592
Hobsonville School,174.637212,-36.805129,1746049.253171496,5925494.643981236
Holy Cross School (Papatoetoe),174.860421,-36.979569,1765585.3393423813,5905776.67287166
Holy Cross Catholic School (Henderson),174.636365,-36.886969,1745818.1458718185,5916416.346738154
Homai School,174.880252,-37.01243,1767278.5333977055,5902096.077053741
Howick Intermediate,174.918246,-36.89969,1770910.922146194,5914537.076734828
Howick Primary School,174.915936,-36.897739,1770709.4328562203,5914757.67462852
Huapai District School,174.536946,-36.774074,1737159.6469420413,5929088.385688994
Hunua School,175.074808,-37.079793,1784426.276824067,5894262.049753604
Jean Batten School,174.814316,-36.973939,1761493.3132989036,5906480.503909718
Kaiaua School,175.298105,-37.09972,1804224.0570101654,5891593.993228629
Kaipara Flats School,174.545885,-36.408373,1738610.0901408119,5969645.451888761
Karaka School,174.902942,-37.125285,1769046.6091219718,5889534.51645074
Kaukapakapa School,174.494878,-36.617883,1733675.3953117707,5946475.455856471
Kauri Park School,174.69842,-36.805482,1751509.1299884978,5925360.226904124
Kaurilands School,174.65451,-36.928233,1747355.7808153513,5911810.449422909
Kedgley Intermediate,174.834163,-36.976891,1763253.765294164,5906119.139183324
Kelston Intermediate,174.663896,-36.897624,1748251.040065399,5915191.808348194
Kelston School,174.665451,-36.903467,1748378.2824874986,5914541.141463943
Kelvin Road School,174.959609,-37.063363,1774222.8936766894,5896302.477120813
Moanaroa School,174.82739,-36.973509,1762658.0627630437,5906505.958617017
Kohimarama School,174.837156,-36.854781,1763781.1999530967,5919661.827080189
Konini School (Auckland),174.64289,-36.927233,1746322.699603675,5911939.292656483
Koru School,174.803964,-36.958267,1760604.7224153406,5908236.787199086
Kōwhai Intermediate,174.748563,-36.872187,1755847.116762153,5917879.006443185
Laingholm School,174.627211,-36.962451,1744859.4418138245,5908055.990841186
Leabank School,174.886553,-37.034195,1767791.2695207787,5899670.1442841245
Leigh School,174.803596,-36.291113,1761962.369884544,5982252.9543930795
Lincoln Heights School,174.619682,-36.84487,1744410.6278277442,5921112.311645612
Long Bay School,174.734597,-36.691084,1754966.5682947226,5937993.9523021355
Mairangi Bay School,174.747386,-36.744593,1756000.9447390223,5932036.761095205
Mangatangi School,175.204623,-37.199817,1795657.2977572775,5880684.414344978
Mangatawhiri School,175.12297,-37.213804,1788374.9989676797,5879298.008327051
Maangere Bridge School,174.786866,-36.946367,1759107.1300793476,5909585.752773287
Mangere Central School,174.790515,-36.974111,1759374.2200490888,5906501.521767855
Māngere East School,174.825119,-36.964508,1762475.0366296973,5907508.481964131
Manuka Primary School,174.716925,-36.774831,1753221.0706662708,5928731.270133587
Royal Oak Intermediate School,174.774516,-36.915792,1758070.501914347,5912998.5048486255
Manurewa East School,174.908655,-37.02227,1769783.788572548,5900954.002410999
Manurewa Intermediate,174.885516,-37.022515,1767724.7201055663,5900967.874800434
Manurewa Central School,174.896027,-37.020492,1768664.2868607335,5901173.740238518
Manurewa South School,174.896078,-37.033073,1768640.9968448603,5899777.7803442925
Manurewa West School,174.886906,-37.024393,1767844.245534255,5900757.057876598
Maraetai Beach School,175.036926,-36.878782,1781535.7562143626,5916637.592738753
Maramarua School,175.227785,-37.251032,1797579.4347592196,5874953.486989292
Marist School (Mt Albert),174.725359,-36.880871,1753761.3815438226,5916953.193978601
Marist Catholic School (Herne Bay),174.735627,-36.851308,1754736.155125829,5920216.471659474
Marlborough School,174.730623,-36.785858,1754421.4755816613,5927485.868871447
Marshall Laing School,174.718233,-36.916178,1753055.7186914275,5913047.502593609
Massey Primary School,174.600248,-36.839541,1742687.6701574312,5921732.730512667
Matakana School,174.715127,-36.355014,1753891.411765426,5975308.509922745
Matipo Road School,174.641103,-36.837366,1746334.970021951,5921912.228459265
Mauku School,174.820835,-37.205572,1761580.9208019052,5880769.665735468
Maungawhau School,174.754176,-36.891909,1756307.221919089,5915681.755615104
May Road School,174.730592,-36.915293,1754158.5018138117,5913125.780356733
Mayfield School (Auckland),174.886825,-36.952764,1767994.5579119301,5908704.423645021
Meadowbank School,174.819916,-36.874784,1762201.8144597118,5917471.99571754
Mellons Bay School,174.931409,-36.886362,1772113.7729607886,5915992.137606226
Te Paina School,175.057211,-37.27622,1782388.8320355047,5872501.310681982
Meremere School,175.073248,-37.317894,1783709.3782362097,5867846.1777805155
Milford School (Auckland),174.76114,-36.775003,1757166.885768598,5928640.460577965
Monte Cecilia Catholic School,174.745712,-36.927969,1755479.7364076707,5911694.874629926
Mt Eden Normal School,174.756557,-36.876971,1756549.9070147027,5917335.160348272
Mt Richmond School,174.841867,-36.93942,1764019.9221753273,5910263.253205877
Mountain View School,174.785756,-36.954677,1758991.004641209,5908665.632773178
Mt Albert School,174.731512,-36.878118,1754315.3157560858,5917248.694813368
Mt Carmel School (Meadowbank),174.824908,-36.87333,1762649.8579998633,5917624.816772567
Mt Roskill Intermediate,174.744698,-36.910271,1755425.3446266768,5913660.053611379
Mt Roskill Primary School,174.748274,-36.911446,1755741.5484846677,5913523.857835608
Mulberry Grove School,175.494822,-36.312636,1823982.8556436785,5978485.903945048
Murrays Bay Intermediate,174.744644,-36.73448,1755776.5685154782,5933163.193687659
Murrays Bay School,174.746691,-36.733044,1755962.2639651375,5933319.1759379
Macleans Primary School,174.912216,-36.888944,1770397.5050048148,5915740.119271499
New Lynn School,174.681073,-36.914497,1749748.620419946,5913293.0028226655
New Windsor School,174.712845,-36.907107,1752593.803842471,5914062.524482023
Newmarket School,174.774186,-36.870562,1758134.4164900917,5918017.150250284
Newton Central School,174.751636,-36.862514,1756140.723652256,5918947.159604128
Nga Iwi School,174.802698,-36.97261,1760461.884047557,5906647.5945988465
Northcote Intermediate,174.745657,-36.799157,1755736.128208375,5925986.044964546
Northcote School (Auckland),174.742874,-36.809976,1755465.94460771,5924790.268971983
Northcross Intermediate,174.725735,-36.715788,1754125.4270374812,5935267.52649614
Oaklynn Special School,174.681334,-36.918271,1749764.489730073,5912873.886081937
Okiwi School,175.394316,-36.154207,1815392.3266349381,5996291.51071378
Onehunga Primary School,174.783621,-36.92067,1758871.5081986708,5912442.173575019
Onepoto School,174.746612,-36.79803,1755823.6184455275,5926109.5230869185
Opaheke School,174.9505,-37.074307,1773388.0271763608,5895104.878649553
Orakei School,174.815043,-36.858376,1761802.07212453,5919300.676294705
Oranga School,174.80004,-36.907138,1760362.4619189864,5913916.022794181
Oratia School,174.620405,-36.91304,1744346.698049348,5913548.199238654
Orere School,175.22616,-36.977936,1798146.0860566972,5905259.164985204
Orewa Beach School,174.688479,-36.579615,1751063.6267528636,5950433.9369212715
Orewa Primary School,174.678986,-36.585841,1750202.1761573942,5949758.107704589
Otahuhu Intermediate,174.847248,-36.937133,1764504.0694763148,5910507.716792369
Otahuhu School,174.839664,-36.942854,1763816.3695644103,5909886.046621002
Otaua School,174.741349,-37.306305,1754321.0317450287,5869725.791763766
Our Lady Sacred Heart School (Epsom),174.770376,-36.897436,1757739.485921053,5915041.892126988
Owairaka District School,174.715658,-36.895219,1752868.149741079,5915376.9390571285
Owairoa Primary School,174.926309,-36.899077,1771630.7647388622,5914590.610166214
Paerata School,174.886531,-37.141628,1767552.5483893137,5887750.336009688
Pakuranga Heights School,174.882538,-36.915569,1767694.329234898,5912838.715896014
Pakuranga Intermediate,174.876417,-36.914181,1767152.0529549583,5913003.460172112
Panama Road School,174.853836,-36.926098,1765114.6223253058,5911720.638667371
Panmure Bridge School,174.863906,-36.901885,1766064.1176614873,5914389.5361707965
Panmure District School,174.842517,-36.901551,1764159.001258838,5914463.619278016
Papakura Central School,174.936786,-37.067973,1772183.1301908602,5895832.5923491735
Papakura Intermediate,174.953941,-37.06625,1773712.3284754432,5895992.5356002655
Papakura Normal School,174.93616,-37.048895,1772170.5944177955,5897950.465887984
Kereru Park Campus,174.936647,-37.074483,1772156.0488163293,5895110.54631857
Paparimu School,175.126691,-37.1462,1788873.5480253291,5886791.763928814
Papatoetoe Central School,174.864139,-36.973673,1765929.0957767763,5906424.356450159
Papatoetoe East School,174.875624,-36.973521,1766951.8222061372,5906421.145386152
Papatoetoe Intermediate,174.854483,-36.961663,1765095.4656369947,5907773.635261046
Papatoetoe North School,174.835289,-36.971049,1763366.4885396168,5906765.3699461855
Papatoetoe South School,174.853098,-36.988413,1764914.3992015258,5904808.149995698
Papatoetoe West School,174.848344,-36.979128,1764511.280731011,5905846.537615501
Parakai School,174.432924,-36.663249,1728059.8527248644,5941527.159686949
Ridgeview School,174.648367,-36.754652,1747140.9149176446,5931077.576618366
Mangapikopiko School,174.927885,-37.086943,1771349.0218891774,5893743.926777509
Parkside School,174.897546,-37.21619,1768365.313006993,5879457.931351423
Parnell School,174.787907,-36.855398,1759388.9947518401,5919676.715402275
Pasadena Intermediate,174.717967,-36.865836,1753132.5825541825,5918633.136197806
Patumāhoe Primary School,174.832724,-37.18751,1762674.8148117282,5882753.338225815
Pigeon Mountain School,174.90705,-36.882663,1769951.0421098503,5916446.200676823
Point Chevalier School Rangi-mata-rau,174.704211,-36.860666,1751916.5639846236,5919228.696791235
Pt England School,174.866626,-36.882824,1766347.8537684318,5916499.573430223
Pokeno School,175.01488,-37.243489,1778712.7715407433,5876213.848460599
Pomaria Road School,174.626359,-36.861407,1744974.7506293717,5919267.528841883
Ponsonby Intermediate,174.739685,-36.848062,1755104.5287049839,5920570.01587835
Ponsonby Primary School,174.738996,-36.842089,1755055.1589390556,5921233.808130592
Prospect School,174.639896,-36.915184000000004,1746079.010935336,5913280.654625945
Puhinui School,174.866042,-36.985961,1766071.781694171,5905057.693844951
Pukekawa School,174.986308,-37.341765,1775949.1248386716,5865363.055839426
Pukekohe East School,174.94503,-37.184496,1772651.1071267931,5882889.028769929
Pukekohe Hill School,174.892292,-37.211549,1767909.3797895992,5879982.196595345
Pukekohe Intermediate,174.901574,-37.2036,1768750.791515164,5880847.669191171
Pukekohe North School,174.895974,-37.195792,1768271.1218050164,5881723.9567180965
Pukeoware School,174.774925,-37.242601,1757429.4926019527,5876738.563168918
Puni School,174.854579,-37.232363,1764517.4263633739,5877739.020307172
Ramarama School,174.973732,-37.1423,1775296.5864399502,5887518.170523874
Rangeview Intermediate,174.644966,-36.868618,1746619.7361436933,5918439.099575724
Rānui Primary School,174.603406,-36.865845,1742920.2841969589,5918809.7695612535
Redhill School,174.971627,-37.06993,1775276.3750327728,5895551.747635415
Redoubt North School,174.889971,-36.985861,1768201.8204204678,5905026.774665991
Remuera Intermediate,174.799566,-36.886299,1760363.8418411484,5916228.838625588
Remuera School,174.793116,-36.881603,1759798.802707483,5916760.663883359
Richmond Road School,174.739777,-36.856164,1755096.3570009232,5919670.990346011
Riverhead School,174.593955,-36.753222,1742286.1229474528,5931318.486469913
Riverhills School,174.889636,-36.91995,1768317.0426265467,5912340.142480293
Riverina School,174.861813,-36.913968,1765851.4543972672,5913052.593547335
Robertson Road School,174.810345,-36.967795,1761152.7770725891,5907168.896780046
Rongomai School,174.889019,-36.968476,1768155.3520857987,5906957.3159461785
Roscommon School,174.863548,-37.026919,1765760.8069593117,5900517.7648152895
Te Kura o Pātiki Rosebank School,174.68573,-36.888166,1750215.1178591517,5916206.970202187
Rosehill School,174.93643,-37.075817,1772133.7399608972,5894962.929425904
Rosehill Intermediate,174.935794,-37.078203,1772071.8040875525,5894699.349912659
Rowandale School,174.875236,-37.024803,1766805.1746165818,5900732.099689353
Royal Oak School,174.774377,-36.908656,1758072.8492160703,5913790.4499536455
Royal Road School,174.618092,-36.831663,1744293.6689453754,5922579.935598979
Ruapotaka School,174.860646,-36.888067,1765803.5396921253,5915928.283417909
Rutherford School,174.648899,-36.852559,1747001.0870720365,5920214.695555979
Sandspit Road School,174.723952,-37.240151,1752912.9474321196,5877093.970991004
Shelly Park School,174.944935,-36.908181,1773269.8905686815,5913546.848538123
Sherwood School (Auckland),174.730853,-36.715417,1754583.2992540789,5935300.439929374
Silverdale School,174.679658,-36.606136,1750222.937123579,5947505.537757693
Sir Keith Park School,174.802486,-36.955425,1760479.0914815473,5908554.591752347
Sommerville School,174.86422,-36.893264,1766110.78734307,5915345.4710170515
St Anne's Catholic School (Manurewa),174.882432,-37.021108,1767453.4469928825,5901129.41588955
St Dominic's Catholic School (Blockhouse Bay),174.698727,-36.919392,1751311.6790174278,5912722.05606352
St Francis Catholic School (Pt Chevalier),174.708386,-36.870176,1752269.8831627574,5918166.961816316
St Heliers School,174.860517,-36.857581,1765857.97026888,5919310.849761682
St Ignatius Catholic School (St Heliers),174.850047,-36.85269,1764935.030809871,5919871.627841083
St John the Evangelist Catholic School,174.869759,-36.961253,1766456.4397449987,5907792.536625156
St John's School (Mairangi Bay),174.743684,-36.738602,1755682.5169943557,5932707.447645977
St Joseph's School (Grey Lynn),174.739932,-36.867102,1755088.0624946172,5918457.220735336
St Joseph's Catholic School (Onehunga),174.788102,-36.922912,1759266.013378648,5912185.954157958
St Joseph's School (Orakei),174.820998,-36.86268,1762323.8742707246,5918813.054298747
St Joseph's School (Otahuhu),174.847641,-36.945142,1764521.843683225,5909618.453332042
St Joseph's School (Pukekohe),174.901262,-37.195916,1768740.211977704,5881700.792316921
St Joseph's Catholic School (Takapuna),174.761823,-36.791104,1757194.942389288,5926853.026264326
St Leonards Road School,174.662759,-36.898887,1748147.2846100475,5915053.45178673
St Leo's Catholic School (Devonport),174.796563,-36.825322,1760223.489199011,5922999.0350442985
St Mark's School (Pakuranga),174.89715,-36.901451,1769027.241035008,5914379.2898076335
St Mary's Catholic School (Papakura),174.93651,-37.071188,1772151.3206768215,5895476.381717876
St Mary's Catholic School (Avondale),174.693382,-36.901674,1750870.443329128,5914696.25207898
St Mary's School (Ellerslie),174.803433,-36.895625,1760688.9152578341,5915187.643525527
St Mary's School (Northcote),174.739083,-36.807517,1755132.7171906854,5925069.239823882
St Michael's Catholic School (Remuera),174.783908,-36.873455,1758995.0256751357,5917680.032841525
St Patrick's School (Panmure),174.857072,-36.902249,1765454.398222506,5914361.028045481
St Pius X Catholic School (Glen Innes),174.854399,-36.871504,1765282.515981226,5917776.7430718
St Therese School (Three Kings),174.750528,-36.908246,1755948.8754701775,5913875.20193702
St Thomas School (Auckland),174.841452,-36.863082,1764146.461414048,5918733.48009715
Stanhope Road School,174.83179,-36.895579,1763215.9102792102,5915144.605107736
Stanley Bay School,174.784759,-36.825518,1759170.2658845962,5922997.017936114
Stanmore Bay School,174.727916,-36.62347,1754504.7450178824,5945505.928340908
Our Lady Star of the Sea School (Howick),174.922996,-36.919424,1771290.0319518505,5912339.084646612
Sunnyhills School,174.883307,-36.90209,1767792.368888667,5914332.836600825
Sunnybrae Normal School,174.744714,-36.789612,1755671.3123526345,5927046.541670114
Sunnynook School,174.742493,-36.752399,1755548.3120796669,5931178.700157167
Sunnyvale School,174.636054,-36.892405,1745780.0900384595,5915813.730704358
Sutton Park School,174.821816,-36.957182,1762196.5153493541,5908326.917981479
Swanson School,174.581335,-36.865447,1740953.5652043675,5918886.7379294
Sylvia Park School,174.836562,-36.913478,1763602.9086674459,5913150.580402853
Takanini School,174.924695,-37.039337,1771172.4462823046,5899031.644952815
Takapuna Normal Intermediate,174.755731,-36.787248,1756659.201154053,5927290.823618934
Takapuna School,174.768572,-36.787886,1757803.7640124208,5927198.930090312
Tāmaki School,174.864784,-36.894564,1766158.2282603723,5915200.256639138
Target Road School,174.733365,-36.76338,1754711.3424531585,5929975.227164865
Taupaki School,174.544543,-36.820261,1737754.9047687345,5923953.438429175
Te Atatu Intermediate,174.65287,-36.840457,1747378.3670055598,5921551.213301154
Peninsula Primary School,174.65172,-36.833201,1747289.7361965925,5922357.991353652
Te Hihi School,174.833213,-37.114731,1762874.3070409738,5890827.444534447
Te Kohanga School,174.845212,-37.312704,1763512.4950715443,5868841.117440163
Te Papapa School,174.799656,-36.915229,1760311.3095046068,5913018.996430476
Three Kings School,174.759204,-36.907366,1756723.6611646377,5913958.612388896
Tirimoana School,174.650587,-36.880337,1747098.3066966073,5917130.299929649
Titirangi School,174.653783,-36.938085,1747272.064233578,5910718.543183599
Torbay School,174.745881,-36.705384,1755945.857159887,5936389.17308146
Tuakau School,174.940003,-37.265931,1772019.6880038956,5873862.5820678435
Valley School,174.91329,-37.196975,1769805.451721813,5881561.799507869
Vauxhall School,174.803082,-36.817046,1760822.252933414,5923906.269066318
Verran Primary School,174.713393,-36.802719,1752850.4165113831,5925642.930173395
Victoria Avenue School,174.799034,-36.8655,1760359.923470129,5918537.306165011
View Road School,174.732101,-37.245933,1753624.0748694092,5876439.252046345
Viscount School,174.791455,-36.967462,1759471.7734963289,5907237.640278728
Waiau Pa School,174.751987,-37.138169,1755609.0319878187,5888363.300944273
Waikowhai Intermediate,174.743233,-36.923362,1755268.2738571465,5912210.044558826
Waikowhai Primary School,174.741339,-36.930136,1755085.835209783,5911461.577552266
Waimauku School,174.491337,-36.769953,1733096.2815730749,5929609.981341745
Wainui School,174.591915,-36.607049,1742373.21630217,5947537.89738607
Waioneke School,174.297376,-36.542443,1716126.322305256,5955101.052750654
Waipipi School,174.675501,-37.214289,1748665.8310628661,5880040.549587054
Wairau Intermediate,174.741895,-36.760483,1755478.6036369237,5930282.805531787
Wairau Valley Special School,174.733697,-36.777948,1754711.6935302096,5928358.465719875
Waitakere School,174.539563,-36.85194,1737254.0862831688,5920446.08748576
Waitoki School,174.549547,-36.635456,1738532.8997984866,5944448.447655856
Waiuku Primary School,174.73289,-37.257574,1753670.405680139,5875146.38260603
Wakaaranga School,174.894052,-36.89709,1768760.8022385114,5914868.621661673
Warkworth School,174.656906,-36.397754,1748585.6893557361,5970658.286217153
Waterlea Public School,174.772874,-36.943723,1757866.5921141964,5909902.369549552
Waterview School,174.700846,-36.87706,1751584.172302484,5917415.219699992
Wesley Intermediate,174.729639,-36.903232,1754097.869364966,5914465.437561821
Wesley Primary School,174.727705,-36.899937,1753932.1706487532,5914834.126148049
West Harbour School,174.62252,-36.823557,1744703.835721884,5923472.540406793
Western Heights School (Auckland),174.616385,-36.882467,1744046.0333093696,5916946.160414205
Westmere School (Auckland),174.724377,-36.85974,1753716.2069677645,5919299.154977146
Waimahia Intermediate School,174.86547,-37.035346,1765913.4438444786,5899579.436349006
Weymouth School,174.865615,-37.046592,1765901.8588055444,5898331.436276268
Whangaparaoa School (Auckland),174.754756,-36.635549,1756880.4144908898,5944122.336955808
Whenuapai School,174.618891,-36.793237,1744437.119801568,5926841.799048692
Willow Park School,174.733482,-36.797397,1754653.399130565,5926201.068108042
Wilson School,174.786673,-36.800195,1759393.4903616887,5925803.290491032
Windy Ridge School,174.711449,-36.789845,1752702.5410460278,5927074.323621941
Wiri Central School,174.885458,-37.000487,1767767.9924172605,5903411.987054039
Woodhill School,174.4387,-36.742709,1728443.7625198578,5932704.317794746
Woodlands Park School,174.630373,-36.946677,1745170.900128343,5909801.223415239
Wymondley Road School,174.856366,-36.951004,1765286.1601369749,5908952.972092053
Yendarra School,174.877703,-36.966108,1767153.111097573,5907239.96548287
Chapel Downs School,174.900669,-36.979496,1769168.1058019954,5905714.014346071
Nova Montessori School,172.724993,-43.510659,1577771.1508711558,5182438.121386975
TKKM o Te Raki Paewhenua,174.732119,-36.743396,1754640.2394529607,5932194.329047481
St Anthony's School (Wanganui),175.024063,-39.939599,1772931.940468706,5576985.2631546445
Gloriavale Christian School,171.70313,-42.6058,1493620.2607831047,5282143.85413398
St Francis Xavier Catholic School (Whangarei),174.31496,-35.702866,1718960.5584187347,6048210.507034363
TKKM o Toku Mapihi Maurea,175.324236,-37.788589,1804660.2504855685,5815096.683424488
Marina View School,174.64074,-36.81496,1746345.277836312,5924398.571484288
Kaitoke School (Claris),175.472761,-36.256771,1822160.2749726274,5984735.075057954
Riverview School,173.969687,-35.207821,1688262.664258756,6103479.342734377
Titirangi Rudolf Steiner School,174.640776,-36.952034,1746087.0361853286,5909190.9915870465
UP International College New Zealand,174.762486,-36.854547,1757124.2927873926,5919813.262092896
Bishop Edward Gaines Catholic School,175.877656,-38.223826,1851905.7328727816,5765434.617675184
St Matthew's Primary School (Hastings),176.840089,-39.641202,1929544.3193153539,5605013.360076195
Timaru Christian School,171.228316,-44.403579,1458922.6789891294,5081774.505180812
Te Rā School,174.984668,-40.937769,1767075.299250374,5466254.684560669
TKKM o Ngati Kahungunu o Te Wairoa,177.417864,-39.041005,1982408.5855126155,5669376.489062448
TKKM o Ngati Rangi,175.391594,-39.414824,1805889.3581254384,5634459.1156858
TKKM o Te Whanau Tahi,172.614592,-43.564588,1568875.1703744526,5176413.416500804
Ascot Community School,168.384837,-46.407172,1245286.259463014,4850353.507893793
St Paul's School (Richmond),173.194838,-41.337953,1616302.1951459283,5423707.537282044
Central Regional Health School,174.781261,-41.292222,1749146.332934127,5427272.526062344
Southern Health School,172.593881,-43.553887,1567196.782311253,5177593.900295505
St Mary MacKillop Catholic School,174.810338,-36.962612,1761163.083296147,5907743.952471307
Te Kura Māori o Porirua,174.878538,-41.122124,1757699.82224529,5445985.328157355
St Thomas More Catholic School,176.226299,-37.677013,1884536.6213332128,5825120.694330553
Amana Christian School,170.353415,-45.884359,1394644.4595898215,4915394.620150933
St Paul's School (Massey),174.607463,-36.826973,1743354.5077259904,5923116.255012443
Te Kura o Tōrere,177.493744,-37.947644,1994918.4726804437,5790459.401974158
Wainuiomata Intermediate,174.933393,-41.252707,1761982.7577307979,5431387.004397445
Konini Primary School (Wainuiomata),174.936129,-41.254826,1762206.751668423,5431146.640974698
Manaia View School,174.302758,-35.745843,1717793.3205308667,6043458.27270571
Drummond Primary School,168.15067,-46.153001,1225559.2691170229,4877511.5443903925
TKKM o Wairarapa,175.667556,-40.96076,1824490.0943894004,5462171.8276154185
Destiny School,174.877783,-37.000603,1767084.7490779965,5903412.62044779
Silverstream (South) Primary School,170.359816,-45.874688,1395105.5515255567,4916485.54036191
Putāruru Primary School,175.779072,-38.059323,1843821.569842382,5783955.997636415
Lakeview School,175.679087,-40.947899,1825504.3894791878,5463570.025769692
Masterton Primary School,175.644532,-40.962151,1822547.6204658006,5462076.320853451
Douglas Park School,175.646571,-40.945592,1822774.9293361644,5463909.593415894
Huia Range School,176.10897,-40.199761,1864627.7156022137,5545434.303180292
Stella Maris Primary School,174.677318,-36.613787,1749998.8150213093,5946660.394591687
Te Kura o Waikare,174.234208,-35.339899,1712158.7151840227,6088563.564940985
He Puna Ruku Mātauranga o Whangaruru,174.316723,-35.377694,1719601.937975443,6084275.049768539
Wairoa Primary School,177.42471,-39.037376,1983021.0568081606,5669750.583049198
Tiaho Primary School,177.419994,-39.04303,1982582.0852447504,5669142.653841375
Te Ara Whanui Kura Kaupapa Māori o ngā Kōhanga Reo o Te Awa Kairangi,174.888299,-41.217445,1758289.6031346722,5435384.980900493
TKKM o Nga Uri A Maui,177.997977,-38.643503,2035069.2029970533,5710916.353835608
TKKM o Te Waiu o Ngati Porou,178.320958,-37.891158,2068021.8074030222,5792892.248188467
TKKM o Te Wananga Whare Tapere o Takitimu,176.870381,-39.61987,1932246.8272203472,5607270.0725066895
Ruakituri School,177.411364,-38.770748,1983299.695628359,5699412.968461684
Te Mahia School,177.920268,-39.087426,2025637.823744783,5661982.837497996
Mohaka School,177.190829,-39.117133,1962358.5989140454,5661855.746694941
Te Kura o Waikaremoana,177.151257,-38.823645,1960423.2797067298,5694599.728490413
Rahotu School,173.802899,-39.325024,1669205.6827697146,5646846.846059686
Aberdeen School,175.243253,-37.789,1797527.2775590855,5815225.353499083
Allandale School,176.983304,-37.968787,1949940.6896301243,5790157.459458019
Amisfield School,175.882807,-38.236275,1852313.6765836715,5764038.868396385
Aorangi School (Rotorua),176.207999,-38.131962,1881183.4940776601,5774679.882956375
Apanui School,176.989579,-37.95703,1950548.1768835797,5791439.043918412
Arataki School,176.231122,-37.675378,1884968.3519785122,5825287.494577395
Āria School,174.985763,-38.563158,1773010.8024684568,5729829.051512179
Arohena School,175.615065,-38.192977,1829011.6652398328,5769540.730740268
Ashbrook School,177.293762,-38.014704,1976991.4157626696,5783844.685735141
Awakeri School,176.897386,-37.995011,1942267.6959005801,5787566.211021672
Bankwood School,175.276101,-37.754911,1800512.1488085047,5818938.25963682
Bellevue School (Tauranga),176.125569,-37.679313,1875642.150257476,5825166.785957544
Berkley Normal Middle School,175.327495,-37.802516,1804908.7639597477,5813544.0443812255
TKKM o Bernard Fergusson,175.162062,-37.662082,1790702.5596781264,5829477.567878749
Bethlehem School,176.108604,-37.690324,1874105.0682139075,5823994.514103094
Broadlands School,176.332745,-38.511393,1890599.6389515647,5732176.429918478
Te Kura o Manunui,176.130533,-37.690898,1876037.0427885565,5823866.359352944
Cambridge East School,175.471247,-37.884048,1817326.789262121,5804170.953246781
Cambridge Middle School,175.462246,-37.887159,1816525.9841916575,5803846.652115881
Cambridge School,175.467817,-37.895329,1816991.9649558235,5802927.02833324
Cargill School,175.866036,-38.241508,1850827.5312310602,5763503.684730184
Centennial Park School,175.174234,-38.335869,1790028.6470049748,5754681.523623011
Colville School,175.472294,-36.628202,1821061.3331916598,5943524.581648237
Coroglen School,175.6982,-36.924372,1840337.7184018253,5910116.059736658
David Henry School,175.854759,-38.227335,1849888.9530241485,5765107.261395522
David Street School,175.523679,-37.650087,1822639.370122407,5830011.21198356
Deanwell School,175.275621,-37.81988,1800294.3117847699,5811729.674578344
Edgecumbe School,176.827669,-37.969395,1936260.011581622,5790664.46388971
Elstow-Waihou Combined School,175.638269,-37.523479,1833145.2135571146,5843783.086041512
Fairfield Intermediate,175.285143,-37.763347,1801285.9314755201,5817982.692226628
Fairfield Primary School,175.284078,-37.764108,1801190.046063808,5817900.536437348
Fairhaven School,176.32103,-37.796352,1892423.1372515082,5811582.590161938
Te Wharekura o Kirikiriroa,175.29569,-37.771224,1802193.6231321953,5817085.821700698
Firth School,175.764422,-37.817692,1843332.1233144635,5810811.229475761
Forest Lake School,175.255939,-37.770336,1798694.4591033559,5817269.597381409
Frankton School,175.249637,-37.793252,1798078.1279722396,5814739.996700056
Galatea School,176.741362,-38.410808,1926694.1160594537,5741971.09205533
Glen Massey School,175.075906,-37.673206,1783075.0449512703,5828415.019019283
Glenholme School,176.246129,-38.149355,1884458.843384364,5772632.920618293
Glenview School (Hamilton),175.290754,-37.81635,1801636.06484291,5812088.83367236
Goldfields School (Paeroa),175.674414,-37.370573,1836821.9033081352,5860661.307639746
Goodwood School,175.472019,-37.842492,1817516.8914725557,5808780.838372956
Gordonton School,175.30798,-37.666548,1803562.6324875331,5828675.022481652
Greenpark School (Tauranga),176.127532,-37.732545,1875617.8682488394,5819252.864566601
Greerton Village School - Te Kura o Maarawaewae,176.133809,-37.728178,1876187.4156464748,5819719.03301205
Hamilton East School,175.290498,-37.78742,1801692.2346528815,5815299.765368639
Hamilton North School,175.255766,-37.755169,1798719.8203651838,5818953.03628806
Hamilton West School,175.283299,-37.798962,1801026.9386377078,5814034.459886178
Hautapu School,175.425207,-37.860469,1813345.3624193254,5806893.936018279
Hauturu School,174.930091,-38.10415,1769224.6021088972,5780869.951136348
Hikuai School,175.773375,-37.071598,1846558.9787651792,5893586.217515152
Hikutaia School,175.656921,-37.295504,1835507.0272199558,5869035.5966963
Hillcrest Normal School,175.321223,-37.801124,1804360.3496103531,5813712.255975302
Hilltop School,176.092077,-38.700817,1868901.025320799,5711883.993066676
Hinuera School,175.75781,-37.880686,1842543.3692130293,5803837.290031876
Horahora School (Cambridge),175.625366,-37.981267,1830578.5025732797,5793011.161224024
Horohoro School,176.171969,-38.23903,1877617.5095876635,5762904.472395746
Horotiu School,175.204649,-37.70081,1794358.2423863953,5825092.523571272
Horsham Downs School,175.248986,-37.699827,1798270.044923877,5825108.646136255
TKKM o Huiarau,176.95622,-38.606848,1944524.8641010637,5719421.951488586
Hukanui School,175.278925,-37.748151,1800779.2381814863,5819682.354947921
St Patrick's Catholic School (Taupo),176.061929,-38.67766,1866364.616212098,5714542.562402236
Huntly School (Waikato),175.162351,-37.555034,1791001.7655315837,5841355.565009024
Huntly West School,175.150134,-37.558865,1789912.7702053573,5840955.230591208
Insoll Avenue School,175.296347,-37.761853,1802277.0357111315,5818124.301573219
Rangitaiki School,176.367617,-38.876539,1892149.976934301,5691531.641729726
James Street School,176.97143,-37.96077,1948935.1400190014,5791092.121121975
Kaharoa School,176.234324,-37.995973,1884017.3790546397,5789693.915986367
Kaihere School,175.420544,-37.372751,1814331.5361215132,5861026.806005064
Kaimai School,176.025008,-37.813002,1866291.5957428173,5810620.436648772
Kaingaroa Forest School,176.569432,-38.407687,1911690.123720806,5742913.626199775
Kaipaki School,175.385957,-37.887657,1809814.8602436455,5803965.824017617
Kaitao Intermediate,176.221391,-38.125531,1882382.4142787147,5775352.981752365
Tauranga Special School,176.155618,-37.711539,1878172.257355249,5821501.151277347
Karangahake School,175.723489,-37.421807,1841004.1420760208,5854851.307288246
Karapiro School,175.55361,-37.915616,1824475.1612718594,5800472.422871356
Katikati Primary School,175.922079,-37.551749,1858133.458860953,5839903.662101308
Kawaha Point School,176.23351,-38.108983,1883509.0721319667,5777152.76126035
Kawerau South School,176.701088,-38.096442,1924573.9653516575,5777011.424426886
Kawhia School,174.820083,-38.062017,1759670.2641485075,5785740.204066083
Rotorua Specialist School - Te Kura Pūkenga o Rotorua,176.223575,-38.116624,1882608.2830407817,5776334.970962266
TKKM o Harataunga,175.550099,-36.668798,1827899.8688696967,5938838.039170386
Kerepehi School,175.540884,-37.297058,1825215.1297333385,5869146.087735688
Kihikihi School,175.35508,-38.040619,1806669.7685307397,5787059.9956007525
Kimihia School,175.171861,-37.543187,1791872.2774817136,5842650.7808575
Kinohaku School,174.822338,-38.159021,1759656.7302418537,5774972.017806693
Kio Kio School,175.276714,-38.162046,1799461.292808365,5773756.029803541
Kiwitahi School,175.583388,-37.740001,1827632.525365745,5819889.482531134
Knighton Normal School,175.310072,-37.793054,1803400.6229449431,5814632.126903616
Kopuarahi School,175.50648,-37.220224,1822391.1076918542,5877753.559262158
Korakonui School,175.409784,-38.144041,1811173.0036904837,5775459.38828925
Koromatua School,175.207492,-37.831616,1794266.231541309,5810571.282228574
Kuratau School,175.674338,-38.881513,1831979.3883976743,5692972.144978811
Kutarere School,177.14744,-38.044262,1963992.2291967226,5781147.207424535
Lake Rerewhakaaitu School,176.493668,-38.317411,1905452.0685302822,5753188.5999274785
Lake Rotoma School,176.546295,-38.042015,1911225.7183282136,5783583.669578162
Leamington School,175.473854,-37.916947,1817459.192985048,5800513.880269176
Lichfield School,175.811561,-38.106168,1846515.0497386549,5778671.0490198685
Lynmore Primary School,176.284337,-38.144565,1887826.733299199,5773046.578098693
Maeroa Intermediate,175.260655,-37.778154,1799088.901728477,5816392.0031996565
Maihiihi School,175.386643,-38.217565,1808934.6200697233,5767352.275071615
Maketu School,176.455943,-37.761977,1904447.1940491535,5814966.971806627
Malfroy School,176.234256,-38.14545,1883433.2753551211,5773102.75803566
Mamaku School,176.078396,-38.098604,1869943.9305414364,5778767.661288666
Te Wharekura o Manaia,175.478775,-36.851534,1820999.2401936196,5918729.123518892
Manawaru School,175.763674,-37.633176,1843871.116930638,5831290.690870101
Te Kura Mana Māori o Maraenui,177.583885,-37.873301,2003250.9852082585,5798327.374830192
Marotiri School,175.819589,-38.543628,1845736.1740820738,5730096.1980298655
Te Kura Mana Maori O Matahi,177.110107,-38.25921,1959655.0565852984,5757428.852606697
Te Kura o Te Moutere O Matakana,176.083102,-37.609834,1872149.7607943558,5833002.200051716
Matamata Intermediate,175.765335,-37.815755,1843418.8702344804,5811023.819413017
Matamata Primary School,175.77682,-37.811744,1844443.2733829455,5811438.956861714
Matangi School,175.393697,-37.803586,1810734.873595264,5813278.014258335
Te Kura o Matapihi,176.194451,-37.697147,1881650.860714924,5822982.339447997
Matata School,176.759104,-37.893318,1930575.5542358337,5799355.539349594
Matatoki School,175.603397,-37.206692,1831033.0750128082,5879023.041785473
Matua School,176.129675,-37.665157,1876056.849339757,5826725.836485542
Maungatapu School,176.173783,-37.721897,1879734.9444538534,5820297.347664779
Melville Primary School,175.283493,-37.814238,1801002.5844057205,5812338.856714309
Merivale School,176.143844,-37.720485,1877100.7350754414,5820543.188031319
Mihi School,176.296934,-38.470969,1887637.1878769482,5736776.263165398
Miller Avenue School,175.672063,-37.371748,1836609.986218505,5860536.81628397
Moanataiari School,175.532751,-37.129457,1824991.658065654,5887763.558730411
Mokoia Intermediate,176.297507,-38.137383,1889009.5726473304,5773802.769031268
Morrinsville Intermediate,175.534972,-37.647585,1823643.3149720612,5830261.9800987095
Morrinsville School,175.528028,-37.654062,1823011.2061086518,5829559.753613755
Motumaoho School,175.471491,-37.685307,1817931.5091637985,5826225.462058619
Mountview School,176.092042,-38.683174,1868964.114071758,5713842.483241798
Mount Maunganui Intermediate School,176.211289,-37.665523,1883256.219596899,5826441.487906497
Mount Maunganui Primary School,176.198696,-37.649355,1882206.4107152512,5828273.988459893
Nawton School,175.241733,-37.779882,1797417.6861636695,5816240.384134807
Netherton School,175.609845,-37.340242,1831196.2847933911,5864187.334041145
Newstead Model School,175.359004,-37.776429,1807756.2313250834,5816369.377312309
Ngahinapouri School,175.205324,-37.897937,1793901.457172467,5803216.1517613
Ngakonui Valley School,175.315069,-38.822018,1800978.9646496573,5700427.758257477
Ngakuru School,176.1932,-38.32138,1879160.2207280563,5753699.839019498
Te Kura o Ngāpuke,175.41716,-38.88557,1809656.151582074,5693144.5419249395
Ngaruawahia School,175.151009,-37.670213,1789706.81506913,5828597.73922724
Ngatea School,175.493406,-37.27529,1821069.8476057276,5871673.7330177
Te Kura o Ngaati Hauaa,175.478631,-37.798253,1818229.0945374165,5813674.8142874865
Ngongotaha School,176.209652,-38.07981,1881528.7436791027,5780463.525411225
Ngutunui School,175.115991,-38.076128,1785596.3419620357,5783624.284671469
Nukuhou North School,177.126407,-38.126716,1961738.1522671008,5772075.237408114
Ohaupo School,175.315726,-37.905314,1803589.4109472844,5802162.106327896
Ohinewai School,175.157807,-37.492892,1790758.593002968,5848260.292825723
Ōhope Beach School,177.049331,-37.96964,1955739.5017921298,5789812.08558628
Kuranui Primary School,175.838375,-37.94061,1849427.7018930607,5796974.0023279535
Omanu School,176.206279,-37.658579,1882840.5676604658,5827227.345762584
Te Kura o Ōmarumutu,177.405099,-37.99652,1986867.166941546,5785405.575793837
